{
  "category": "aprendiz",
  "total": 33,
  "routes": [
    {
      "id": "ruta-011",
      "number": 11,
      "name": "Volta a Montserrat per Sant Benet",
      "slug": "volta-montserrat-sant-benet",
      "category": "aprendiz",
      "difficulty": 2,
      "starting_hub": "Manresa / Bages",
      "starting_point": {
        "name": "Manresa",
        "comarca": "Bages",
        "lat": 41.725,
        "lng": 1.826
      },
      "comarca_principal": "Bages",
      "summary": "Ruta curta i accessible que baixa fins a Sant Fruitós de Bages per visitar el monestir de Sant Benet i continua fins als peus de Montserrat. Carreteres amples i ben asfaltades, ideals per agafar confiança. Vistes magnífiques de la silueta de Montserrat des del pla.",
      "total_distance_km": 65,
      "estimated_duration_hours": 2,
      "riding_time_hours": 1.5,
      "elevation_gain_m": 500,
      "elevation_max_m": 450,
      "roads_main": [
        "C-55",
        "BP-1101",
        "BV-1124"
      ],
      "esmorzar": {
        "town": "Sant Fruitós de Bages",
        "comarca": "Bages",
        "lat": 41.741,
        "lng": 1.874,
        "specialty": "Esmorzar al restaurant de Sant Benet amb coca de recapte",
        "confidence": "recommended"
      },
      "route_type": "circular",
      "best_season": [
        "primavera",
        "estiu",
        "tardor",
        "hivern"
      ],
      "tags": [
        "monestir",
        "cultural",
        "fàcil",
        "vistes"
      ],
      "waypoints": [
        {
          "name": "Manresa (sortida)",
          "lat": 41.725,
          "lng": 1.826,
          "type": "start"
        },
        {
          "name": "Sant Fruitós de Bages (Monestir de Sant Benet)",
          "lat": 41.741,
          "lng": 1.874,
          "type": "esmorzar"
        },
        {
          "name": "El Pont de Vilomara",
          "lat": 41.668,
          "lng": 1.877,
          "type": "waypoint"
        },
        {
          "name": "Mirador de Montserrat (des del pla)",
          "lat": 41.635,
          "lng": 1.855,
          "type": "viewpoint"
        },
        {
          "name": "Castellbell i el Vilar",
          "lat": 41.627,
          "lng": 1.862,
          "type": "waypoint"
        },
        {
          "name": "Manresa (arribada)",
          "lat": 41.725,
          "lng": 1.826,
          "type": "end"
        }
      ],
      "google_maps_url": "https://www.google.com/maps/dir/41.725,1.826/41.741,1.874/41.668,1.877/41.635,1.855/41.627,1.862/41.725,1.826"
    },
    {
      "id": "ruta-012",
      "number": 12,
      "name": "El Castell de Cardona",
      "slug": "castell-cardona",
      "category": "aprendiz",
      "difficulty": 2,
      "starting_hub": "Manresa / Bages",
      "starting_point": {
        "name": "Manresa",
        "comarca": "Bages",
        "lat": 41.725,
        "lng": 1.826
      },
      "comarca_principal": "Bages",
      "summary": "Escapada directa de Manresa a Cardona per la C-55, una carretera còmoda i segura que segueix la vall del Cardener. El castell de Cardona, el Parador i la muntanya de sal fan d'aquesta ruta una excursió perfecta per a principiants amb molt a veure.",
      "total_distance_km": 75,
      "estimated_duration_hours": 2,
      "riding_time_hours": 1.5,
      "elevation_gain_m": 450,
      "elevation_max_m": 680,
      "roads_main": [
        "C-55",
        "C-1410a",
        "BV-3003"
      ],
      "esmorzar": {
        "town": "Cardona",
        "comarca": "Bages",
        "lat": 41.912,
        "lng": 1.68,
        "specialty": "Esmorzar amb embotits locals i coca de forner a la plaça del Mercat",
        "confidence": "recommended"
      },
      "route_type": "anada-i-tornada",
      "best_season": [
        "primavera",
        "estiu",
        "tardor",
        "hivern"
      ],
      "tags": [
        "castell",
        "patrimoni",
        "fàcil",
        "sal"
      ],
      "google_maps_url": "https://www.google.com/maps/dir/41.725,1.826/41.751,1.832/41.797,1.804/41.829,1.751/41.912,1.68/41.914,1.681/41.797,1.804/41.751,1.832/41.725,1.826",
      "waypoints": [
        {
          "name": "Manresa",
          "lat": 41.725,
          "lng": 1.826,
          "type": "start",
          "road": "C-55"
        },
        {
          "name": "Sant Joan de Vilatorrada",
          "lat": 41.751,
          "lng": 1.832,
          "type": "waypoint",
          "road": "C-55"
        },
        {
          "name": "Callús",
          "lat": 41.797,
          "lng": 1.804,
          "type": "waypoint",
          "road": "C-55"
        },
        {
          "name": "Súria",
          "lat": 41.829,
          "lng": 1.751,
          "type": "waypoint",
          "road": "C-55"
        },
        {
          "name": "Cardona",
          "lat": 41.912,
          "lng": 1.68,
          "type": "esmorzar",
          "road": "C-1410a"
        },
        {
          "name": "Cardona Castle",
          "lat": 41.914,
          "lng": 1.681,
          "type": "viewpoint",
          "road": "BV-3003"
        },
        {
          "name": "Callús",
          "lat": 41.797,
          "lng": 1.804,
          "type": "waypoint",
          "road": "C-55"
        },
        {
          "name": "Sant Joan de Vilatorrada",
          "lat": 41.751,
          "lng": 1.832,
          "type": "waypoint",
          "road": "C-55"
        },
        {
          "name": "Manresa",
          "lat": 41.725,
          "lng": 1.826,
          "type": "end",
          "road": "C-55"
        }
      ],
      "waypoints_source": "openai_verified",
      "verification": {
        "gpt_distance_km": 80,
        "gpt_duration_hours": 1.5,
        "distance_diff_pct": 0.07,
        "duration_diff_pct": 0.25,
        "plausible": true,
        "notes": "The route follows the specified roads closely, and the estimated distance and duration are slightly less than claimed, likely due to direct routing and current road conditions."
      }
    },
    {
      "id": "ruta-013",
      "number": 13,
      "name": "El Llobregat per Navàs i Balsareny",
      "slug": "llobregat-navas-balsareny",
      "category": "aprendiz",
      "difficulty": 1,
      "starting_hub": "Manresa / Bages",
      "starting_point": {
        "name": "Manresa",
        "comarca": "Bages",
        "lat": 41.725,
        "lng": 1.826
      },
      "comarca_principal": "Bages",
      "summary": "Volta suau pel nord del Bages passant per Navàs i Balsareny, dues viles amb encant que conserven el patrimoni industrial tèxtil. Carreteres planes i fàcils al costat del Llobregat, perfectes per a qui comença a rodar en moto.",
      "total_distance_km": 50,
      "estimated_duration_hours": 1.5,
      "riding_time_hours": 1,
      "elevation_gain_m": 300,
      "elevation_max_m": 450,
      "roads_main": [
        "C-16",
        "BV-4501",
        "B-423"
      ],
      "esmorzar": {
        "town": "Navàs",
        "comarca": "Bages",
        "lat": 41.886,
        "lng": 1.876,
        "specialty": "Entrepà de botifarra amb mongetes a un bar de plaça",
        "confidence": "recommended"
      },
      "route_type": "circular",
      "best_season": [
        "primavera",
        "estiu",
        "tardor",
        "hivern"
      ],
      "tags": [
        "fàcil",
        "pla",
        "riu",
        "patrimoni-industrial"
      ],
      "google_maps_url": "https://www.google.com/maps/dir/41.725,1.826/41.824,1.873/41.886,1.876/41.873,1.874/41.973,1.878/41.833,1.75/41.725,1.826",
      "waypoints": [
        {
          "name": "Manresa",
          "lat": 41.725,
          "lng": 1.826,
          "type": "start",
          "road": "C-16"
        },
        {
          "name": "Sallent",
          "lat": 41.824,
          "lng": 1.873,
          "type": "waypoint",
          "road": "C-16"
        },
        {
          "name": "Navàs",
          "lat": 41.886,
          "lng": 1.876,
          "type": "esmorzar",
          "road": "C-16"
        },
        {
          "name": "Balsareny",
          "lat": 41.873,
          "lng": 1.874,
          "type": "waypoint",
          "road": "BV-4501"
        },
        {
          "name": "Puig-reig",
          "lat": 41.973,
          "lng": 1.878,
          "type": "waypoint",
          "road": "B-423"
        },
        {
          "name": "Súria",
          "lat": 41.833,
          "lng": 1.75,
          "type": "waypoint",
          "road": "B-423"
        },
        {
          "name": "Manresa",
          "lat": 41.725,
          "lng": 1.826,
          "type": "end",
          "road": "C-16"
        }
      ],
      "waypoints_source": "openai_verified",
      "verification": {
        "gpt_distance_km": 55,
        "gpt_duration_hours": 1.5,
        "distance_diff_pct": 0.1,
        "duration_diff_pct": 0.0,
        "plausible": true,
        "notes": "The route is plausible and follows the specified roads closely. The estimated distance and duration are slightly adjusted for accuracy."
      }
    },
    {
      "id": "ruta-014",
      "number": 14,
      "name": "Sallent i el Pantà de la Baells",
      "slug": "sallent-panta-baells",
      "category": "aprendiz",
      "difficulty": 2,
      "starting_hub": "Manresa / Bages",
      "starting_point": {
        "name": "Manresa",
        "comarca": "Bages",
        "lat": 41.725,
        "lng": 1.826
      },
      "comarca_principal": "Berguedà",
      "summary": "Pujada tranquil·la per la C-16 fins a Sallent i continuació cap al pantà de la Baells, on l'aigua reflecteix les muntanyes del Berguedà. Ruta lineal amb tornada pel mateix camí, ideal per gaudir del paisatge sense pressió.",
      "total_distance_km": 100,
      "estimated_duration_hours": 2.5,
      "riding_time_hours": 2,
      "elevation_gain_m": 600,
      "elevation_max_m": 620,
      "roads_main": [
        "C-16",
        "C-1411a",
        "BV-4235"
      ],
      "esmorzar": {
        "town": "Sallent",
        "comarca": "Bages",
        "lat": 41.827,
        "lng": 1.893,
        "specialty": "Esmorzar de forquilla amb ous amb cansalada i pa de pagès",
        "confidence": "recommended"
      },
      "route_type": "anada-i-tornada",
      "best_season": [
        "primavera",
        "estiu",
        "tardor"
      ],
      "tags": [
        "pantà",
        "aigua",
        "tranquil",
        "fàcil"
      ],
      "google_maps_url": "https://www.google.com/maps/dir/41.725,1.826/41.827,1.893/41.866,1.9/41.9,1.88/41.973,1.879/42.05,1.88/42.1,1.9/41.827,1.893/41.725,1.826",
      "waypoints": [
        {
          "name": "Manresa",
          "lat": 41.725,
          "lng": 1.826,
          "type": "start",
          "road": "C-16"
        },
        {
          "name": "Sallent",
          "lat": 41.827,
          "lng": 1.893,
          "type": "esmorzar",
          "road": "C-16"
        },
        {
          "name": "Interchange C-16 and C-1411a",
          "lat": 41.866,
          "lng": 1.9,
          "type": "waypoint",
          "road": "C-1411a"
        },
        {
          "name": "Navàs",
          "lat": 41.9,
          "lng": 1.88,
          "type": "waypoint",
          "road": "C-16"
        },
        {
          "name": "Puig-reig",
          "lat": 41.973,
          "lng": 1.879,
          "type": "waypoint",
          "road": "C-16"
        },
        {
          "name": "Girona Bridge",
          "lat": 42.05,
          "lng": 1.88,
          "type": "waypoint",
          "road": "C-16"
        },
        {
          "name": "Pantà de la Baells",
          "lat": 42.1,
          "lng": 1.9,
          "type": "viewpoint",
          "road": "BV-4235"
        },
        {
          "name": "Return to Sallent",
          "lat": 41.827,
          "lng": 1.893,
          "type": "waypoint",
          "road": "C-16"
        },
        {
          "name": "Return to Manresa",
          "lat": 41.725,
          "lng": 1.826,
          "type": "end",
          "road": "C-16"
        }
      ],
      "waypoints_source": "openai_verified",
      "verification": {
        "gpt_distance_km": 110,
        "gpt_duration_hours": 2.5,
        "distance_diff_pct": 0.1,
        "duration_diff_pct": 0.0,
        "plausible": true,
        "notes": "The route closely follows the specified roads and waypoints are chosen at key intersections and points of interest. The estimated distance and duration are slightly adjusted to reflect actual travel conditions."
      }
    },
    {
      "id": "ruta-015",
      "number": 15,
      "name": "El Pont de Vilomara i la Riera de Sant Joan",
      "slug": "pont-vilomara-riera-sant-joan",
      "category": "aprendiz",
      "difficulty": 1,
      "starting_hub": "Manresa / Bages",
      "starting_point": {
        "name": "Manresa",
        "comarca": "Bages",
        "lat": 41.725,
        "lng": 1.826
      },
      "comarca_principal": "Bages",
      "summary": "Circuit curt i planer que surt de Manresa cap al Pont de Vilomara i Rocafort, travessant zones boscoses al costat del Llobregat. Tornada per Sant Vicenç de Castellet amb un ritme suau i sense cap tram complicat. Ideal per a una primera sortida en grup.",
      "total_distance_km": 45,
      "estimated_duration_hours": 1.5,
      "riding_time_hours": 1,
      "elevation_gain_m": 250,
      "elevation_max_m": 380,
      "roads_main": [
        "BV-1221",
        "B-124",
        "C-55"
      ],
      "esmorzar": {
        "town": "El Pont de Vilomara i Rocafort",
        "comarca": "Bages",
        "lat": 41.686,
        "lng": 1.879,
        "specialty": "Entrepà de truita de patates i cafè amb llet a un bar del poble",
        "confidence": "recommended"
      },
      "route_type": "circular",
      "best_season": [
        "primavera",
        "estiu",
        "tardor",
        "hivern"
      ],
      "tags": [
        "fàcil",
        "primer-cop",
        "bosc",
        "riu"
      ],
      "google_maps_url": "https://www.google.com/maps/dir/41.725,1.826/41.686,1.879/41.693,1.898/41.665,1.87/41.783,1.807/41.725,1.826",
      "waypoints": [
        {
          "name": "Manresa",
          "lat": 41.725,
          "lng": 1.826,
          "type": "start",
          "road": "C-55"
        },
        {
          "name": "Pont de Vilomara i Rocafort",
          "lat": 41.686,
          "lng": 1.879,
          "type": "esmorzar",
          "road": "BV-1221"
        },
        {
          "name": "Intersection BV-1221 and B-124",
          "lat": 41.693,
          "lng": 1.898,
          "type": "waypoint",
          "road": "B-124"
        },
        {
          "name": "Sant Vicenç de Castellet",
          "lat": 41.665,
          "lng": 1.87,
          "type": "waypoint",
          "road": "C-55"
        },
        {
          "name": "Callús",
          "lat": 41.783,
          "lng": 1.807,
          "type": "waypoint",
          "road": "C-55"
        },
        {
          "name": "Manresa",
          "lat": 41.725,
          "lng": 1.826,
          "type": "end",
          "road": "C-55"
        }
      ],
      "waypoints_source": "openai_verified",
      "verification": {
        "gpt_distance_km": 50,
        "gpt_duration_hours": 1.5,
        "distance_diff_pct": 0.11,
        "duration_diff_pct": 0.0,
        "plausible": true,
        "notes": "The route is plausible and follows the specified roads. The estimated distance is slightly more than claimed due to the actual road layout."
      }
    },
    {
      "id": "ruta-026",
      "number": 26,
      "name": "El Maresme Curt: Mataró i Dosrius",
      "slug": "maresme-curt-mataro-dosrius",
      "category": "aprendiz",
      "difficulty": 2,
      "starting_hub": "Barcelona / Vallès",
      "starting_point": {
        "name": "Cerdanyola del Vallès",
        "comarca": "Vallès Occidental",
        "lat": 41.549,
        "lng": 2.107
      },
      "comarca_principal": "Maresme",
      "summary": "Ruta curta que baixa a la costa del Maresme per Mataró i remunta per Dosrius, un petit poble de muntanya amb encant. Carreteres amples i ben senyalitzades, amb un tram costaner agradable i una pujada interior suau. Perfecta per gaudir del mar sense complicacions.",
      "total_distance_km": 80,
      "estimated_duration_hours": 2,
      "riding_time_hours": 1.5,
      "elevation_gain_m": 500,
      "elevation_max_m": 420,
      "roads_main": [
        "C-33",
        "C-32",
        "BV-5105",
        "BV-5028"
      ],
      "esmorzar": {
        "town": "Mataró",
        "comarca": "Maresme",
        "lat": 41.54,
        "lng": 2.444,
        "specialty": "Esmorzar de mar amb sardines a la brasa i pa amb tomàquet",
        "confidence": "recommended"
      },
      "route_type": "circular",
      "best_season": [
        "primavera",
        "estiu",
        "tardor"
      ],
      "tags": [
        "costa",
        "fàcil",
        "mar",
        "pobles"
      ],
      "google_maps_url": "https://www.google.com/maps/dir/41.549,2.107/41.511,2.217/41.54,2.444/41.59,2.406/41.596,2.365/41.549,2.107",
      "waypoints": [
        {
          "name": "Cerdanyola del Vallès",
          "lat": 41.549,
          "lng": 2.107,
          "type": "start",
          "road": "C-33"
        },
        {
          "name": "Interchange C-33 to C-32",
          "lat": 41.511,
          "lng": 2.217,
          "type": "waypoint",
          "road": "C-32"
        },
        {
          "name": "Mataró",
          "lat": 41.54,
          "lng": 2.444,
          "type": "esmorzar",
          "road": "C-32"
        },
        {
          "name": "Dosrius",
          "lat": 41.59,
          "lng": 2.406,
          "type": "waypoint",
          "road": "BV-5105"
        },
        {
          "name": "Intersection BV-5105 and BV-5028",
          "lat": 41.596,
          "lng": 2.365,
          "type": "waypoint",
          "road": "BV-5028"
        },
        {
          "name": "Return to Cerdanyola del Vallès",
          "lat": 41.549,
          "lng": 2.107,
          "type": "end",
          "road": "BV-5028"
        }
      ],
      "waypoints_source": "openai_verified",
      "verification": {
        "gpt_distance_km": 85,
        "gpt_duration_hours": 2.2,
        "distance_diff_pct": 0.06,
        "duration_diff_pct": 0.1,
        "plausible": true,
        "notes": "The route is plausible and follows the specified roads. The estimated distance and duration are slightly higher than claimed, likely due to road conditions and traffic."
      }
    },
    {
      "id": "ruta-027",
      "number": 27,
      "name": "Collserola Express",
      "slug": "collserola-express",
      "category": "aprendiz",
      "difficulty": 1,
      "starting_hub": "Barcelona / Vallès",
      "starting_point": {
        "name": "Barcelona",
        "comarca": "Barcelonès",
        "lat": 41.389,
        "lng": 2.159
      },
      "comarca_principal": "Barcelonès",
      "summary": "El circuit més accessible des de Barcelona: pujada al Tibidabo per la BV-1468, volta pel Parc de Collserola i baixada per Molins de Rei. Carreteres ben asfaltades, revolts suaus i vistes espectaculars de la ciutat. La introducció perfecta al motociclisme de ruta.",
      "total_distance_km": 45,
      "estimated_duration_hours": 1.5,
      "riding_time_hours": 1,
      "elevation_gain_m": 400,
      "elevation_max_m": 512,
      "roads_main": [
        "BV-1468",
        "BP-1417",
        "BV-1462"
      ],
      "esmorzar": {
        "town": "Vallvidrera",
        "comarca": "Barcelonès",
        "lat": 41.417,
        "lng": 2.107,
        "specialty": "Cafè amb croissant a Can Trampa, amb vistes sobre Barcelona",
        "confidence": "recommended"
      },
      "route_type": "circular",
      "best_season": [
        "primavera",
        "estiu",
        "tardor",
        "hivern"
      ],
      "tags": [
        "urbà",
        "fàcil",
        "vistes",
        "primer-cop"
      ],
      "google_maps_url": "https://www.google.com/maps/dir/41.389,2.159/41.417,2.107/41.421,2.091/41.422,2.119/41.472,2.086/41.441,2.075/41.434,2.088/41.389,2.159",
      "waypoints": [
        {
          "name": "Barcelona",
          "lat": 41.389,
          "lng": 2.159,
          "type": "start",
          "road": "BV-1468"
        },
        {
          "name": "Vallvidrera",
          "lat": 41.417,
          "lng": 2.107,
          "type": "esmorzar",
          "road": "BV-1468"
        },
        {
          "name": "Collserola Park Entrance",
          "lat": 41.421,
          "lng": 2.091,
          "type": "waypoint",
          "road": "BV-1468"
        },
        {
          "name": "Tibidabo",
          "lat": 41.422,
          "lng": 2.119,
          "type": "viewpoint",
          "road": "BP-1417"
        },
        {
          "name": "Sant Cugat del Vallès",
          "lat": 41.472,
          "lng": 2.086,
          "type": "waypoint",
          "road": "BP-1417"
        },
        {
          "name": "La Floresta",
          "lat": 41.441,
          "lng": 2.075,
          "type": "waypoint",
          "road": "BV-1462"
        },
        {
          "name": "Les Planes",
          "lat": 41.434,
          "lng": 2.088,
          "type": "waypoint",
          "road": "BV-1462"
        },
        {
          "name": "Barcelona",
          "lat": 41.389,
          "lng": 2.159,
          "type": "end",
          "road": "BV-1462"
        }
      ],
      "waypoints_source": "openai_verified",
      "verification": {
        "gpt_distance_km": 42,
        "gpt_duration_hours": 1.2,
        "distance_diff_pct": 0.07,
        "duration_diff_pct": 0.2,
        "plausible": true,
        "notes": "The route closely follows the specified roads and matches the claimed distance and duration."
      }
    },
    {
      "id": "ruta-028",
      "number": 28,
      "name": "Sant Cugat i la Floresta",
      "slug": "sant-cugat-floresta",
      "category": "aprendiz",
      "difficulty": 1,
      "starting_hub": "Barcelona / Vallès",
      "starting_point": {
        "name": "Cerdanyola del Vallès",
        "comarca": "Vallès Occidental",
        "lat": 41.549,
        "lng": 2.107
      },
      "comarca_principal": "Vallès Occidental",
      "summary": "Volta curta per les urbanitzacions boscoses de Sant Cugat, la Floresta i Valldoreix. Carreteres residencials amb poc trànsit, ombra de pins i una sensació de calma total. Perfecta per practicar revolts suaus i agafar confiança amb la moto.",
      "total_distance_km": 40,
      "estimated_duration_hours": 1.5,
      "riding_time_hours": 1,
      "elevation_gain_m": 300,
      "elevation_max_m": 350,
      "roads_main": [
        "BV-1462",
        "BP-1417",
        "B-20"
      ],
      "esmorzar": {
        "town": "Sant Cugat del Vallès",
        "comarca": "Vallès Occidental",
        "lat": 41.473,
        "lng": 2.086,
        "specialty": "Esmorzar complet amb torrada de pa amb tomàquet i cafè a la plaça Octavià",
        "confidence": "recommended"
      },
      "route_type": "circular",
      "best_season": [
        "primavera",
        "estiu",
        "tardor",
        "hivern"
      ],
      "tags": [
        "fàcil",
        "tranquil",
        "bosc",
        "urbà"
      ],
      "google_maps_url": "https://www.google.com/maps/dir/41.549,2.107/41.51,2.088/41.473,2.086/41.448,2.068/41.441,2.058/41.549,2.107",
      "waypoints": [
        {
          "name": "Cerdanyola del Vallès",
          "lat": 41.549,
          "lng": 2.107,
          "type": "start",
          "road": "BV-1462"
        },
        {
          "name": "Intersection BV-1462 & BP-1417",
          "lat": 41.51,
          "lng": 2.088,
          "type": "waypoint",
          "road": "BP-1417"
        },
        {
          "name": "Sant Cugat del Vallès",
          "lat": 41.473,
          "lng": 2.086,
          "type": "esmorzar",
          "road": "BP-1417"
        },
        {
          "name": "La Floresta",
          "lat": 41.448,
          "lng": 2.068,
          "type": "waypoint",
          "road": "BP-1417"
        },
        {
          "name": "Intersection BP-1417 & B-20",
          "lat": 41.441,
          "lng": 2.058,
          "type": "waypoint",
          "road": "B-20"
        },
        {
          "name": "Return to Cerdanyola del Vallès",
          "lat": 41.549,
          "lng": 2.107,
          "type": "end",
          "road": "BV-1462"
        }
      ],
      "waypoints_source": "openai_verified",
      "verification": {
        "gpt_distance_km": 42,
        "gpt_duration_hours": 1.5,
        "distance_diff_pct": 0.05,
        "duration_diff_pct": 0.0,
        "plausible": true,
        "notes": "The route follows the specified roads closely and returns to the starting point, matching the circular route description. Estimated distance and duration are slightly adjusted for accuracy."
      }
    },
    {
      "id": "ruta-029",
      "number": 29,
      "name": "El Garraf Curt: Gavà a Sitges",
      "slug": "garraf-curt-gava-sitges",
      "category": "aprendiz",
      "difficulty": 2,
      "starting_hub": "Barcelona / Vallès",
      "starting_point": {
        "name": "Barcelona",
        "comarca": "Barcelonès",
        "lat": 41.389,
        "lng": 2.159
      },
      "comarca_principal": "Garraf",
      "summary": "La ruta costanera per excel·lència per a principiants: de Barcelona a Sitges per la C-32 amb el mar sempre present. Un passeig visual espectacular pels túnels del Garraf i les cales amagades. Tornada pel mateix camí amb la llum canviant sobre el Mediterrani.",
      "total_distance_km": 75,
      "estimated_duration_hours": 2,
      "riding_time_hours": 1.5,
      "elevation_gain_m": 350,
      "elevation_max_m": 280,
      "roads_main": [
        "C-32",
        "C-31",
        "B-20"
      ],
      "esmorzar": {
        "town": "Sitges",
        "comarca": "Garraf",
        "lat": 41.236,
        "lng": 1.812,
        "specialty": "Esmorzar al passeig marítim amb coca de vidre i cafè amb llet",
        "confidence": "recommended"
      },
      "route_type": "anada-i-tornada",
      "best_season": [
        "primavera",
        "tardor",
        "hivern"
      ],
      "tags": [
        "costa",
        "mar",
        "fàcil",
        "passeig"
      ],
      "google_maps_url": "https://www.google.com/maps/dir/41.389,2.159/41.314,2.016/41.277,1.981/41.244,1.887/41.236,1.812/41.244,1.887/41.277,1.981/41.314,2.016/41.389,2.159",
      "waypoints": [
        {
          "name": "Barcelona",
          "lat": 41.389,
          "lng": 2.159,
          "type": "start",
          "road": "B-20"
        },
        {
          "name": "Viladecans",
          "lat": 41.314,
          "lng": 2.016,
          "type": "waypoint",
          "road": "C-32"
        },
        {
          "name": "Castelldefels",
          "lat": 41.277,
          "lng": 1.981,
          "type": "waypoint",
          "road": "C-32"
        },
        {
          "name": "Garraf",
          "lat": 41.244,
          "lng": 1.887,
          "type": "waypoint",
          "road": "C-31"
        },
        {
          "name": "Sitges",
          "lat": 41.236,
          "lng": 1.812,
          "type": "esmorzar",
          "road": "C-31"
        },
        {
          "name": "Garraf",
          "lat": 41.244,
          "lng": 1.887,
          "type": "waypoint",
          "road": "C-31"
        },
        {
          "name": "Castelldefels",
          "lat": 41.277,
          "lng": 1.981,
          "type": "waypoint",
          "road": "C-32"
        },
        {
          "name": "Viladecans",
          "lat": 41.314,
          "lng": 2.016,
          "type": "waypoint",
          "road": "C-32"
        },
        {
          "name": "Barcelona",
          "lat": 41.389,
          "lng": 2.159,
          "type": "end",
          "road": "B-20"
        }
      ],
      "waypoints_source": "openai_verified",
      "verification": {
        "gpt_distance_km": 80,
        "gpt_duration_hours": 1.5,
        "distance_diff_pct": 0.07,
        "duration_diff_pct": 0.25,
        "plausible": true,
        "notes": "The route follows the main roads C-32 and C-31 with a breakfast stop in Sitges. The estimated distance and duration are slightly less than claimed, likely due to the direct nature of the roads."
      }
    },
    {
      "id": "ruta-030",
      "number": 30,
      "name": "Granollers i la Roca del Vallès",
      "slug": "granollers-roca-valles",
      "category": "aprendiz",
      "difficulty": 1,
      "starting_hub": "Barcelona / Vallès",
      "starting_point": {
        "name": "Cerdanyola del Vallès",
        "comarca": "Vallès Occidental",
        "lat": 41.549,
        "lng": 2.107
      },
      "comarca_principal": "Vallès Oriental",
      "summary": "Travessia del Vallès de punta a punta, de Cerdanyola a Granollers per la Roca del Vallès. Carreteres planes i directes que permeten rodar amb comoditat, amb una parada a Granollers per esmorzar al mercat. Ruta ideal per a un matí tranquil sense complicacions.",
      "total_distance_km": 60,
      "estimated_duration_hours": 1.5,
      "riding_time_hours": 1,
      "elevation_gain_m": 200,
      "elevation_max_m": 280,
      "roads_main": [
        "C-33",
        "C-17",
        "BV-5001"
      ],
      "esmorzar": {
        "town": "Granollers",
        "comarca": "Vallès Oriental",
        "lat": 41.608,
        "lng": 2.288,
        "specialty": "Esmorzar al mercat de Granollers amb embotits i torrades amb tomàquet",
        "confidence": "recommended"
      },
      "route_type": "circular",
      "best_season": [
        "primavera",
        "estiu",
        "tardor",
        "hivern"
      ],
      "tags": [
        "pla",
        "fàcil",
        "mercat",
        "vallès"
      ],
      "google_maps_url": "https://www.google.com/maps/dir/41.549,2.107/41.498,2.188/41.54,2.211/41.574,2.232/41.608,2.288/41.584,2.326/41.531,2.25/41.558,2.267/41.549,2.107",
      "waypoints": [
        {
          "name": "Cerdanyola del Vallès",
          "lat": 41.549,
          "lng": 2.107,
          "type": "start",
          "road": "C-33"
        },
        {
          "name": "Montcada i Reixac",
          "lat": 41.498,
          "lng": 2.188,
          "type": "waypoint",
          "road": "C-33"
        },
        {
          "name": "Mollet del Vallès",
          "lat": 41.54,
          "lng": 2.211,
          "type": "waypoint",
          "road": "C-17"
        },
        {
          "name": "Parets del Vallès",
          "lat": 41.574,
          "lng": 2.232,
          "type": "waypoint",
          "road": "C-17"
        },
        {
          "name": "Granollers",
          "lat": 41.608,
          "lng": 2.288,
          "type": "esmorzar",
          "road": "C-17"
        },
        {
          "name": "La Roca del Vallès",
          "lat": 41.584,
          "lng": 2.326,
          "type": "waypoint",
          "road": "BV-5001"
        },
        {
          "name": "Santa Maria de Martorelles",
          "lat": 41.531,
          "lng": 2.25,
          "type": "waypoint",
          "road": "BV-5001"
        },
        {
          "name": "Montornès del Vallès",
          "lat": 41.558,
          "lng": 2.267,
          "type": "waypoint",
          "road": "BV-5001"
        },
        {
          "name": "Cerdanyola del Vallès",
          "lat": 41.549,
          "lng": 2.107,
          "type": "end",
          "road": "BV-5001"
        }
      ],
      "waypoints_source": "openai_verified",
      "verification": {
        "gpt_distance_km": 65,
        "gpt_duration_hours": 1.5,
        "distance_diff_pct": 0.08,
        "duration_diff_pct": 0.0,
        "plausible": true,
        "notes": "The route follows the specified roads and includes a scenic loop through Vallès Oriental. The estimated distance and duration are consistent with the claimed values."
      }
    },
    {
      "id": "ruta-031",
      "number": 31,
      "name": "Mollet i Santa Perpètua",
      "slug": "mollet-santa-perpetua",
      "category": "aprendiz",
      "difficulty": 1,
      "starting_hub": "Barcelona / Vallès",
      "starting_point": {
        "name": "Cerdanyola del Vallès",
        "comarca": "Vallès Occidental",
        "lat": 41.549,
        "lng": 2.107
      },
      "comarca_principal": "Vallès Occidental",
      "summary": "Circuit curtíssim i sense cap dificultat tècnica: Cerdanyola, Santa Perpètua de Mogoda, Mollet del Vallès i tornada. Perfecta per a qui acaba de treure's el carnet i vol fer els primers quilòmetres fora de ciutat amb total seguretat. Carreteres planes i rectes.",
      "total_distance_km": 42,
      "estimated_duration_hours": 1.5,
      "riding_time_hours": 1,
      "elevation_gain_m": 100,
      "elevation_max_m": 180,
      "roads_main": [
        "B-140",
        "C-33",
        "N-150"
      ],
      "esmorzar": {
        "town": "Mollet del Vallès",
        "comarca": "Vallès Oriental",
        "lat": 41.544,
        "lng": 2.19,
        "specialty": "Entrepà de truita amb café amb llet a un bar del centre",
        "confidence": "recommended"
      },
      "route_type": "circular",
      "best_season": [
        "primavera",
        "estiu",
        "tardor",
        "hivern"
      ],
      "tags": [
        "fàcil",
        "primer-cop",
        "pla",
        "urbà"
      ],
      "google_maps_url": "https://www.google.com/maps/dir/41.549,2.107/41.546,2.133/41.544,2.19/41.548,2.203/41.531,2.154/41.516,2.122/41.549,2.107",
      "waypoints": [
        {
          "name": "Cerdanyola del Vallès",
          "lat": 41.549,
          "lng": 2.107,
          "type": "start",
          "road": "N-150"
        },
        {
          "name": "Intersection B-140 with C-58",
          "lat": 41.546,
          "lng": 2.133,
          "type": "waypoint",
          "road": "B-140"
        },
        {
          "name": "Mollet del Vallès",
          "lat": 41.544,
          "lng": 2.19,
          "type": "esmorzar",
          "road": "B-140"
        },
        {
          "name": "C-33 Entrance near Mollet",
          "lat": 41.548,
          "lng": 2.203,
          "type": "waypoint",
          "road": "C-33"
        },
        {
          "name": "Intersection C-33 with N-150",
          "lat": 41.531,
          "lng": 2.154,
          "type": "waypoint",
          "road": "C-33"
        },
        {
          "name": "Intersection N-150 with B-140",
          "lat": 41.516,
          "lng": 2.122,
          "type": "waypoint",
          "road": "N-150"
        },
        {
          "name": "Cerdanyola del Vallès",
          "lat": 41.549,
          "lng": 2.107,
          "type": "end",
          "road": "N-150"
        }
      ],
      "waypoints_source": "openai_verified",
      "verification": {
        "gpt_distance_km": 42,
        "gpt_duration_hours": 1.5,
        "distance_diff_pct": 0.0,
        "duration_diff_pct": 0.0,
        "plausible": true,
        "notes": "The route follows the specified roads closely and matches the claimed distance and duration. The waypoints are chosen at key intersections and the breakfast stop."
      }
    },
    {
      "id": "ruta-037",
      "number": 37,
      "name": "Matadepera i la Vall de Sant Llorenç",
      "slug": "matadepera-vall-sant-llorenc",
      "category": "aprendiz",
      "difficulty": 2,
      "starting_hub": "Sabadell / Terrassa",
      "starting_point": {
        "name": "Terrassa",
        "comarca": "Vallès Occidental",
        "lat": 41.563,
        "lng": 2.008
      },
      "comarca_principal": "Vallès Occidental",
      "summary": "Pujada suau de Terrassa a Matadepera, un poble acomodat al peu de Sant Llorenç del Munt. Circuit curt per les urbanitzacions boscoses amb vistes als conglomerats del massís. Carreteres amples i ben mantingudes, ideals per a primeres sortides amb un esmorzar de masia.",
      "total_distance_km": 50,
      "estimated_duration_hours": 1.5,
      "riding_time_hours": 1,
      "elevation_gain_m": 350,
      "elevation_max_m": 520,
      "roads_main": [
        "BV-1221",
        "BV-1229",
        "C-58"
      ],
      "esmorzar": {
        "town": "Matadepera",
        "comarca": "Vallès Occidental",
        "lat": 41.598,
        "lng": 2.023,
        "specialty": "Esmorzar de masia amb pa amb tomàquet, pernil i cafè al sol",
        "confidence": "recommended"
      },
      "route_type": "circular",
      "best_season": [
        "primavera",
        "estiu",
        "tardor",
        "hivern"
      ],
      "tags": [
        "fàcil",
        "masia",
        "bosc",
        "vistes"
      ],
      "google_maps_url": "https://www.google.com/maps/dir/41.563,2.008/41.598,2.023/41.683,2.082/41.703,2.059/41.716,2.123/41.616,2.086/41.548,2.107/41.563,2.008",
      "waypoints": [
        {
          "name": "Terrassa",
          "lat": 41.563,
          "lng": 2.008,
          "type": "start",
          "road": "BV-1221"
        },
        {
          "name": "Matadepera",
          "lat": 41.598,
          "lng": 2.023,
          "type": "esmorzar",
          "road": "BV-1221"
        },
        {
          "name": "Sant Llorenç Savall",
          "lat": 41.683,
          "lng": 2.082,
          "type": "waypoint",
          "road": "BV-1221"
        },
        {
          "name": "Intersection BV-1221 and BV-1229",
          "lat": 41.703,
          "lng": 2.059,
          "type": "waypoint",
          "road": "BV-1229"
        },
        {
          "name": "Gallifa",
          "lat": 41.716,
          "lng": 2.123,
          "type": "waypoint",
          "road": "BV-1229"
        },
        {
          "name": "Castellar del Vallès",
          "lat": 41.616,
          "lng": 2.086,
          "type": "waypoint",
          "road": "BV-1229"
        },
        {
          "name": "Sabadell",
          "lat": 41.548,
          "lng": 2.107,
          "type": "waypoint",
          "road": "C-58"
        },
        {
          "name": "Terrassa",
          "lat": 41.563,
          "lng": 2.008,
          "type": "end",
          "road": "C-58"
        }
      ],
      "waypoints_source": "openai_verified",
      "verification": {
        "gpt_distance_km": 55,
        "gpt_duration_hours": 1.5,
        "distance_diff_pct": 0.1,
        "duration_diff_pct": 0.0,
        "plausible": true,
        "notes": "The route follows the specified roads closely and the estimated distance and duration are consistent with the claimed values."
      }
    },
    {
      "id": "ruta-038",
      "number": 38,
      "name": "Sabadell a Sentmenat pel Rodal",
      "slug": "sabadell-sentmenat-rodal",
      "category": "aprendiz",
      "difficulty": 1,
      "starting_hub": "Sabadell / Terrassa",
      "starting_point": {
        "name": "Sabadell",
        "comarca": "Vallès Occidental",
        "lat": 41.543,
        "lng": 2.108
      },
      "comarca_principal": "Vallès Occidental",
      "summary": "El circuit més senzill des de Sabadell: pujada a Sentmenat per la B-124, volta per Polinyà i Santa Perpètua de Mogoda, i tornada. Carreteres planes amb algun revolt suau, paisatge agrícola del Vallès i zero complicacions. La ruta perfecta per estrenar-se.",
      "total_distance_km": 45,
      "estimated_duration_hours": 1.5,
      "riding_time_hours": 1,
      "elevation_gain_m": 200,
      "elevation_max_m": 280,
      "roads_main": [
        "B-124",
        "C-59",
        "N-150",
        "B-140"
      ],
      "esmorzar": {
        "town": "Sentmenat",
        "comarca": "Vallès Occidental",
        "lat": 41.632,
        "lng": 2.148,
        "specialty": "Entrepà de botifarra amb mongetes a un bar de carretera a Sentmenat",
        "confidence": "recommended"
      },
      "route_type": "circular",
      "best_season": [
        "primavera",
        "estiu",
        "tardor",
        "hivern"
      ],
      "tags": [
        "fàcil",
        "primer-cop",
        "pla",
        "agrícola"
      ],
      "google_maps_url": "https://www.google.com/maps/dir/41.543,2.108/41.583,2.124/41.632,2.148/41.607,2.14/41.556,2.108/41.543,2.108",
      "waypoints": [
        {
          "name": "Sabadell",
          "lat": 41.543,
          "lng": 2.108,
          "type": "start",
          "road": "B-124"
        },
        {
          "name": "Intersection B-124 and C-59",
          "lat": 41.583,
          "lng": 2.124,
          "type": "waypoint",
          "road": "B-124"
        },
        {
          "name": "Sentmenat",
          "lat": 41.632,
          "lng": 2.148,
          "type": "esmorzar",
          "road": "B-124"
        },
        {
          "name": "Intersection C-59 and N-150",
          "lat": 41.607,
          "lng": 2.14,
          "type": "waypoint",
          "road": "C-59"
        },
        {
          "name": "Intersection N-150 and B-140",
          "lat": 41.556,
          "lng": 2.108,
          "type": "waypoint",
          "road": "N-150"
        },
        {
          "name": "Sabadell",
          "lat": 41.543,
          "lng": 2.108,
          "type": "end",
          "road": "B-140"
        }
      ],
      "waypoints_source": "openai_verified",
      "verification": {
        "gpt_distance_km": 45,
        "gpt_duration_hours": 1.5,
        "distance_diff_pct": 0.0,
        "duration_diff_pct": 0.0,
        "plausible": true,
        "notes": "The route follows the specified roads and matches the claimed distance and duration."
      }
    },
    {
      "id": "ruta-049",
      "number": 49,
      "name": "Empordanet: Pals, Peratallada i Ullastret",
      "slug": "empordanet-pals-peratallada-i-ullastret",
      "category": "aprendiz",
      "difficulty": 1,
      "starting_hub": "Girona / Empordà",
      "starting_point": {
        "name": "Girona",
        "comarca": "Gironès",
        "lat": 41.983,
        "lng": 2.824
      },
      "comarca_principal": "Baix Empordà",
      "summary": "Passeig tranquil pels pobles medievals més bonics de l'Empordà. Carreteres planes i amples entre camps d'arròs, masies i pobles de pedra com Pals, Peratallada i Ullastret. Ideal per gaudir sense pressa del paisatge empordanès i la seva gastronomia.",
      "total_distance_km": 85,
      "estimated_duration_hours": 2.5,
      "riding_time_hours": 1.5,
      "elevation_gain_m": 250,
      "elevation_max_m": 180,
      "roads_main": [
        "C-66",
        "GI-643",
        "GI-644",
        "C-31"
      ],
      "esmorzar": {
        "town": "Pals",
        "comarca": "Baix Empordà",
        "lat": 41.972,
        "lng": 3.148,
        "specialty": "Arròs de Pals amb botifarra i oli d'oliva de l'Empordà",
        "confidence": "recommended"
      },
      "route_type": "circular",
      "best_season": [
        "primavera",
        "estiu",
        "tardor"
      ],
      "tags": [
        "medieval",
        "empordà",
        "gastronomia",
        "tranquil"
      ],
      "waypoints": [
        {
          "name": "Girona (sortida)",
          "lat": 41.983,
          "lng": 2.824,
          "type": "start"
        },
        {
          "name": "La Bisbal d'Empordà",
          "lat": 41.959,
          "lng": 3.045,
          "type": "waypoint"
        },
        {
          "name": "Pals (nucli antic)",
          "lat": 41.972,
          "lng": 3.148,
          "type": "esmorzar"
        },
        {
          "name": "Peratallada",
          "lat": 41.978,
          "lng": 3.094,
          "type": "viewpoint"
        },
        {
          "name": "Ullastret (jaciment ibèric)",
          "lat": 41.966,
          "lng": 3.071,
          "type": "waypoint"
        },
        {
          "name": "Girona (arribada)",
          "lat": 41.983,
          "lng": 2.824,
          "type": "end"
        }
      ],
      "google_maps_url": "https://www.google.com/maps/dir/41.983,2.824/41.959,3.045/41.972,3.148/41.978,3.094/41.966,3.071/41.983,2.824"
    },
    {
      "id": "ruta-050",
      "number": 50,
      "name": "L'Estany de Banyoles i Porqueres",
      "slug": "lestany-de-banyoles-i-porqueres",
      "category": "aprendiz",
      "difficulty": 1,
      "starting_hub": "Girona / Empordà",
      "starting_point": {
        "name": "Girona",
        "comarca": "Gironès",
        "lat": 41.983,
        "lng": 2.824
      },
      "comarca_principal": "Pla de l'Estany",
      "summary": "Ruta curta i planera fins a l'estany de Banyoles, el llac més gran de Catalunya. Volta tranquil·la per Porqueres i els voltants del llac amb carreteres amples i ben asfaltades. Perfecta per a un matí relaxat amb esmorzar a la vora de l'aigua.",
      "total_distance_km": 65,
      "estimated_duration_hours": 2,
      "riding_time_hours": 1.5,
      "elevation_gain_m": 180,
      "elevation_max_m": 175,
      "roads_main": [
        "C-66",
        "GI-524",
        "GI-554"
      ],
      "esmorzar": {
        "town": "Banyoles",
        "comarca": "Pla de l'Estany",
        "lat": 42.119,
        "lng": 2.764,
        "specialty": "Entrepà de llonganissa amb un tallat a la plaça Major",
        "confidence": "recommended"
      },
      "route_type": "circular",
      "best_season": [
        "primavera",
        "estiu",
        "tardor"
      ],
      "tags": [
        "llac",
        "tranquil",
        "principiant",
        "paisatge"
      ],
      "google_maps_url": "https://www.google.com/maps/dir/41.983,2.824/41.981,2.734/41.999,2.739/42.119,2.764/42.116,2.756/42.136,2.609/42.148,2.572/42.051,2.74/41.983,2.824",
      "waypoints": [
        {
          "name": "Girona",
          "lat": 41.983,
          "lng": 2.824,
          "type": "start",
          "road": "C-66"
        },
        {
          "name": "Bescanó",
          "lat": 41.981,
          "lng": 2.734,
          "type": "waypoint",
          "road": "C-66"
        },
        {
          "name": "Sant Gregori",
          "lat": 41.999,
          "lng": 2.739,
          "type": "waypoint",
          "road": "C-66"
        },
        {
          "name": "Banyoles",
          "lat": 42.119,
          "lng": 2.764,
          "type": "esmorzar",
          "road": "GI-524"
        },
        {
          "name": "Porqueres",
          "lat": 42.116,
          "lng": 2.756,
          "type": "waypoint",
          "road": "GI-524"
        },
        {
          "name": "Mieres",
          "lat": 42.136,
          "lng": 2.609,
          "type": "waypoint",
          "road": "GI-524"
        },
        {
          "name": "Santa Pau",
          "lat": 42.148,
          "lng": 2.572,
          "type": "waypoint",
          "road": "GI-524"
        },
        {
          "name": "Canet d'Adri",
          "lat": 42.051,
          "lng": 2.74,
          "type": "waypoint",
          "road": "GI-554"
        },
        {
          "name": "Girona",
          "lat": 41.983,
          "lng": 2.824,
          "type": "end",
          "road": "GI-554"
        }
      ],
      "waypoints_source": "openai_verified",
      "verification": {
        "gpt_distance_km": 70,
        "gpt_duration_hours": 2.2,
        "distance_diff_pct": 0.08,
        "duration_diff_pct": 0.1,
        "plausible": true,
        "notes": "The route is slightly longer than claimed, likely due to additional curves and elevation changes. The estimated duration accounts for typical traffic and road conditions."
      }
    },
    {
      "id": "ruta-051",
      "number": 51,
      "name": "Besalú i la Vall del Fluvià",
      "slug": "besalu-i-la-vall-del-fluvia",
      "category": "aprendiz",
      "difficulty": 2,
      "starting_hub": "Girona / Empordà",
      "starting_point": {
        "name": "Girona",
        "comarca": "Gironès",
        "lat": 41.983,
        "lng": 2.824
      },
      "comarca_principal": "La Garrotxa",
      "summary": "Excursió matinal fins a Besalú, la joia medieval de la Garrotxa. La C-66 és àmplia i còmoda, i el poble amb el seu pont romànic del segle XII és una parada obligatòria. Tornada per Banyoles per completar un circuit fàcil i gratificant.",
      "total_distance_km": 90,
      "estimated_duration_hours": 2.5,
      "riding_time_hours": 1.5,
      "elevation_gain_m": 350,
      "elevation_max_m": 290,
      "roads_main": [
        "C-66",
        "GI-524"
      ],
      "esmorzar": {
        "town": "Besalú",
        "comarca": "La Garrotxa",
        "lat": 42.199,
        "lng": 2.699,
        "specialty": "Esmorzar de pagès amb truita, embotits i coca de llardons",
        "confidence": "recommended"
      },
      "route_type": "circular",
      "best_season": [
        "primavera",
        "estiu",
        "tardor"
      ],
      "tags": [
        "medieval",
        "cultura",
        "principiant",
        "pont"
      ],
      "google_maps_url": "https://www.google.com/maps/dir/41.983,2.824/41.993,2.763/42.116,2.765/42.199,2.699/42.201,2.682/42.141,2.601/42.144,2.573/42.182,2.488/41.983,2.824",
      "waypoints": [
        {
          "name": "Girona",
          "lat": 41.983,
          "lng": 2.824,
          "type": "start",
          "road": "C-66"
        },
        {
          "name": "Sant Gregori",
          "lat": 41.993,
          "lng": 2.763,
          "type": "waypoint",
          "road": "C-66"
        },
        {
          "name": "Banyoles",
          "lat": 42.116,
          "lng": 2.765,
          "type": "waypoint",
          "road": "C-66"
        },
        {
          "name": "Besalú",
          "lat": 42.199,
          "lng": 2.699,
          "type": "esmorzar",
          "road": "C-66"
        },
        {
          "name": "Sant Ferriol",
          "lat": 42.201,
          "lng": 2.682,
          "type": "waypoint",
          "road": "GI-524"
        },
        {
          "name": "Mieres",
          "lat": 42.141,
          "lng": 2.601,
          "type": "waypoint",
          "road": "GI-524"
        },
        {
          "name": "Santa Pau",
          "lat": 42.144,
          "lng": 2.573,
          "type": "waypoint",
          "road": "GI-524"
        },
        {
          "name": "Olot",
          "lat": 42.182,
          "lng": 2.488,
          "type": "waypoint",
          "road": "GI-524"
        },
        {
          "name": "Girona",
          "lat": 41.983,
          "lng": 2.824,
          "type": "end",
          "road": "C-66"
        }
      ],
      "waypoints_source": "openai_verified",
      "verification": {
        "gpt_distance_km": 95,
        "gpt_duration_hours": 2.5,
        "distance_diff_pct": 0.06,
        "duration_diff_pct": 0.0,
        "plausible": true,
        "notes": "The route follows scenic secondary roads as specified, with a slight adjustment to include Olot for a more complete circuit."
      }
    },
    {
      "id": "ruta-052",
      "number": 52,
      "name": "Cala Estreta i Sant Feliu de Guíxols",
      "slug": "cala-estreta-i-sant-feliu-de-guixols",
      "category": "aprendiz",
      "difficulty": 2,
      "starting_hub": "Girona / Empordà",
      "starting_point": {
        "name": "Girona",
        "comarca": "Gironès",
        "lat": 41.983,
        "lng": 2.824
      },
      "comarca_principal": "Baix Empordà",
      "summary": "Baixada fins a la costa per la GI-664 fins a Sant Feliu de Guíxols, amb un petit tram de la mítica GI-682 apte per a principiants. Vistes al mar, una parada per esmorzar al port i una tornada tranquil·la per l'interior. Un tast de Costa Brava sense complicacions.",
      "total_distance_km": 80,
      "estimated_duration_hours": 2,
      "riding_time_hours": 1.5,
      "elevation_gain_m": 450,
      "elevation_max_m": 250,
      "roads_main": [
        "C-65",
        "GI-664",
        "GI-682",
        "C-31"
      ],
      "esmorzar": {
        "town": "Sant Feliu de Guíxols",
        "comarca": "Baix Empordà",
        "lat": 41.784,
        "lng": 3.032,
        "specialty": "Esmorzar de peix fresc al port amb cafè i vistes al mar",
        "confidence": "recommended"
      },
      "route_type": "circular",
      "best_season": [
        "primavera",
        "estiu",
        "tardor"
      ],
      "tags": [
        "costa",
        "mar",
        "principiant",
        "port"
      ],
      "google_maps_url": "https://www.google.com/maps/dir/41.983,2.824/41.933,2.85/41.825,2.892/41.784,3.032/41.718,2.933/41.825,2.892/41.877,2.874/41.983,2.824",
      "waypoints": [
        {
          "name": "Girona",
          "lat": 41.983,
          "lng": 2.824,
          "type": "start",
          "road": "C-65"
        },
        {
          "name": "Quart",
          "lat": 41.933,
          "lng": 2.85,
          "type": "waypoint",
          "road": "C-65"
        },
        {
          "name": "Llagostera",
          "lat": 41.825,
          "lng": 2.892,
          "type": "waypoint",
          "road": "C-65"
        },
        {
          "name": "Sant Feliu de Guíxols",
          "lat": 41.784,
          "lng": 3.032,
          "type": "esmorzar",
          "road": "GI-682"
        },
        {
          "name": "Tossa de Mar",
          "lat": 41.718,
          "lng": 2.933,
          "type": "waypoint",
          "road": "GI-682"
        },
        {
          "name": "Llagostera",
          "lat": 41.825,
          "lng": 2.892,
          "type": "waypoint",
          "road": "GI-664"
        },
        {
          "name": "Cassà de la Selva",
          "lat": 41.877,
          "lng": 2.874,
          "type": "waypoint",
          "road": "C-65"
        },
        {
          "name": "Girona",
          "lat": 41.983,
          "lng": 2.824,
          "type": "end",
          "road": "C-65"
        }
      ],
      "waypoints_source": "openai_verified",
      "verification": {
        "gpt_distance_km": 85,
        "gpt_duration_hours": 2.5,
        "distance_diff_pct": 0.06,
        "duration_diff_pct": 0.25,
        "plausible": true,
        "notes": "The route follows the specified roads closely, with a slight increase in estimated distance and duration due to the winding nature of the GI-682 road."
      }
    },
    {
      "id": "ruta-053",
      "number": 53,
      "name": "Les Gavarres Secretes",
      "slug": "les-gavarres-secretes",
      "category": "aprendiz",
      "difficulty": 2,
      "starting_hub": "Girona / Empordà",
      "starting_point": {
        "name": "Girona",
        "comarca": "Gironès",
        "lat": 41.983,
        "lng": 2.824
      },
      "comarca_principal": "Gironès",
      "summary": "Descoberta del massís de les Gavarres, la muntanya verda entre Girona i la costa. Carreteres tranquil·les entre alzinars i suredes, passant per Madremanya, Monells i Cruïlles. Un circuit curt i suau per gaudir del silenci i els pobles de pedra del Gironès interior.",
      "total_distance_km": 70,
      "estimated_duration_hours": 2,
      "riding_time_hours": 1.5,
      "elevation_gain_m": 380,
      "elevation_max_m": 320,
      "roads_main": [
        "C-66",
        "GI-660",
        "GI-664",
        "C-65"
      ],
      "esmorzar": {
        "town": "Monells",
        "comarca": "Baix Empordà",
        "lat": 41.964,
        "lng": 2.96,
        "specialty": "Entrepà d'embotits artesans amb oli d'oliva de les Gavarres",
        "confidence": "recommended"
      },
      "route_type": "circular",
      "best_season": [
        "primavera",
        "tardor"
      ],
      "tags": [
        "bosc",
        "pobles",
        "tranquil",
        "principiant"
      ],
      "google_maps_url": "https://www.google.com/maps/dir/41.983,2.824/42.009,2.878/41.997,2.946/41.964,2.96/41.953,2.975/41.958,3.038/41.881,2.872/41.831,2.888/41.983,2.824",
      "waypoints": [
        {
          "name": "Girona",
          "lat": 41.983,
          "lng": 2.824,
          "type": "start",
          "road": "C-66"
        },
        {
          "name": "Celrà",
          "lat": 42.009,
          "lng": 2.878,
          "type": "waypoint",
          "road": "C-66"
        },
        {
          "name": "Madremanya",
          "lat": 41.997,
          "lng": 2.946,
          "type": "waypoint",
          "road": "GI-660"
        },
        {
          "name": "Monells",
          "lat": 41.964,
          "lng": 2.96,
          "type": "esmorzar",
          "road": "GI-660"
        },
        {
          "name": "Sant Sadurní de l'Heura",
          "lat": 41.953,
          "lng": 2.975,
          "type": "waypoint",
          "road": "GI-664"
        },
        {
          "name": "La Bisbal d'Empordà",
          "lat": 41.958,
          "lng": 3.038,
          "type": "waypoint",
          "road": "C-66"
        },
        {
          "name": "Cassà de la Selva",
          "lat": 41.881,
          "lng": 2.872,
          "type": "waypoint",
          "road": "C-65"
        },
        {
          "name": "Llagostera",
          "lat": 41.831,
          "lng": 2.888,
          "type": "waypoint",
          "road": "C-65"
        },
        {
          "name": "Girona",
          "lat": 41.983,
          "lng": 2.824,
          "type": "end",
          "road": "C-65"
        }
      ],
      "waypoints_source": "openai_verified",
      "verification": {
        "gpt_distance_km": 78,
        "gpt_duration_hours": 2.2,
        "distance_diff_pct": 0.11,
        "duration_diff_pct": 0.1,
        "plausible": true,
        "notes": "The route closely follows the specified roads and includes a scenic detour through Les Gavarres. The estimated distance and duration are slightly higher than claimed, likely due to the winding nature of the roads."
      }
    },
    {
      "id": "ruta-061",
      "number": 61,
      "name": "Centelles, Tona i el Pla de Vic",
      "slug": "centelles-tona-i-el-pla-de-vic",
      "category": "aprendiz",
      "difficulty": 1,
      "starting_hub": "Vic / Osona",
      "starting_point": {
        "name": "Vic",
        "comarca": "Osona",
        "lat": 41.886,
        "lng": 2.254
      },
      "comarca_principal": "Osona",
      "summary": "Circuit suau pel pla de Vic passant per Tona, Centelles i els pobles dels voltants. Carreteres amples i rectes amb suaus ondulacions entre camps de conreu i granges. Perfecta per agafar confiança amb la moto i gaudir dels embotits de Vic en un esmorzar de forquilla memorable.",
      "total_distance_km": 55,
      "estimated_duration_hours": 2,
      "riding_time_hours": 1,
      "elevation_gain_m": 200,
      "elevation_max_m": 590,
      "roads_main": [
        "C-17",
        "BV-5303",
        "N-141c"
      ],
      "esmorzar": {
        "town": "Vic",
        "comarca": "Osona",
        "lat": 41.886,
        "lng": 2.254,
        "specialty": "Esmorzar de forquilla al mercat de Vic amb llonganissa, fuet i secallona",
        "confidence": "verified"
      },
      "route_type": "circular",
      "best_season": [
        "primavera",
        "estiu",
        "tardor",
        "hivern"
      ],
      "tags": [
        "pla",
        "principiant",
        "gastronomia",
        "mercat"
      ],
      "google_maps_url": "https://www.google.com/maps/dir/41.886,2.254/41.886,2.254/41.847,2.227/41.798,2.217/41.828,2.232/41.891,2.274/41.886,2.254",
      "waypoints": [
        {
          "name": "Vic",
          "lat": 41.886,
          "lng": 2.254,
          "type": "start",
          "road": "C-17"
        },
        {
          "name": "Breakfast Stop Vic",
          "lat": 41.886,
          "lng": 2.254,
          "type": "esmorzar",
          "road": "C-17"
        },
        {
          "name": "Tona",
          "lat": 41.847,
          "lng": 2.227,
          "type": "waypoint",
          "road": "C-17"
        },
        {
          "name": "Centelles",
          "lat": 41.798,
          "lng": 2.217,
          "type": "waypoint",
          "road": "BV-5303"
        },
        {
          "name": "Sant Miquel de Balenyà",
          "lat": 41.828,
          "lng": 2.232,
          "type": "waypoint",
          "road": "N-141c"
        },
        {
          "name": "El Pla de Vic",
          "lat": 41.891,
          "lng": 2.274,
          "type": "waypoint",
          "road": "N-141c"
        },
        {
          "name": "Vic",
          "lat": 41.886,
          "lng": 2.254,
          "type": "end",
          "road": "N-141c"
        }
      ],
      "waypoints_source": "openai_verified",
      "verification": {
        "gpt_distance_km": 55,
        "gpt_duration_hours": 1.5,
        "distance_diff_pct": 0.0,
        "duration_diff_pct": 0.25,
        "plausible": true,
        "notes": "The route follows the specified roads and is plausible within the claimed distance and duration. The waypoints are accurately placed along the C-17, BV-5303, and N-141c roads."
      }
    },
    {
      "id": "ruta-062",
      "number": 62,
      "name": "Pantà de Sau Exprés",
      "slug": "panta-de-sau-expres",
      "category": "aprendiz",
      "difficulty": 2,
      "starting_hub": "Vic / Osona",
      "starting_point": {
        "name": "Vic",
        "comarca": "Osona",
        "lat": 41.886,
        "lng": 2.254
      },
      "comarca_principal": "Osona",
      "summary": "Versió curta de la ruta al pantà de Sau, adaptada per a principiants. Baixada suau per la C-153 fins a Vilanova de Sau amb vistes al pantà i al mític campanar submergit. Les corbes són obertes i previsibles, ideals per practicar la tècnica de les revoltes.",
      "total_distance_km": 70,
      "estimated_duration_hours": 2,
      "riding_time_hours": 1.5,
      "elevation_gain_m": 450,
      "elevation_max_m": 600,
      "roads_main": [
        "C-153",
        "BV-5213",
        "C-17"
      ],
      "esmorzar": {
        "town": "Vilanova de Sau",
        "comarca": "Osona",
        "lat": 41.93,
        "lng": 2.385,
        "specialty": "Entrepà de botifarra amb mongetes i un cafè amb vistes al pantà",
        "confidence": "recommended"
      },
      "route_type": "circular",
      "best_season": [
        "primavera",
        "estiu",
        "tardor"
      ],
      "tags": [
        "embassament",
        "principiant",
        "vistes",
        "tranquil"
      ],
      "google_maps_url": "https://www.google.com/maps/dir/41.886,2.254/41.93,2.261/41.933,2.321/41.93,2.385/41.953,2.393/41.905,2.333/41.85,2.223/41.886,2.254",
      "waypoints": [
        {
          "name": "Vic",
          "lat": 41.886,
          "lng": 2.254,
          "type": "start",
          "road": "C-153"
        },
        {
          "name": "Gurb",
          "lat": 41.93,
          "lng": 2.261,
          "type": "waypoint",
          "road": "C-153"
        },
        {
          "name": "Tavèrnoles",
          "lat": 41.933,
          "lng": 2.321,
          "type": "waypoint",
          "road": "BV-5213"
        },
        {
          "name": "Vilanova de Sau",
          "lat": 41.93,
          "lng": 2.385,
          "type": "esmorzar",
          "road": "BV-5213"
        },
        {
          "name": "Pantà de Sau",
          "lat": 41.953,
          "lng": 2.393,
          "type": "viewpoint",
          "road": "BV-5213"
        },
        {
          "name": "Sant Julià de Vilatorta",
          "lat": 41.905,
          "lng": 2.333,
          "type": "waypoint",
          "road": "C-153"
        },
        {
          "name": "Tona",
          "lat": 41.85,
          "lng": 2.223,
          "type": "waypoint",
          "road": "C-17"
        },
        {
          "name": "Vic",
          "lat": 41.886,
          "lng": 2.254,
          "type": "end",
          "road": "C-17"
        }
      ],
      "waypoints_source": "openai_verified",
      "verification": {
        "gpt_distance_km": 72,
        "gpt_duration_hours": 2,
        "distance_diff_pct": 0.03,
        "duration_diff_pct": 0.0,
        "plausible": true,
        "notes": "The route closely follows the specified roads and matches the claimed distance and duration. The path includes scenic views near Pantà de Sau."
      }
    },
    {
      "id": "ruta-063",
      "number": 63,
      "name": "Manlleu, Roda de Ter i el Ter",
      "slug": "manlleu-roda-de-ter-i-el-ter",
      "category": "aprendiz",
      "difficulty": 1,
      "starting_hub": "Vic / Osona",
      "starting_point": {
        "name": "Vic",
        "comarca": "Osona",
        "lat": 41.886,
        "lng": 2.254
      },
      "comarca_principal": "Osona",
      "summary": "Passeig relaxat seguint el curs del riu Ter entre Vic, Manlleu i Roda de Ter. Carreteres planes al costat del riu amb poques corbes. El meandre de Roda de Ter és un dels paisatges fluvials més bonics d'Osona. Ruta perfecta per a un matí tranquil amb bon esmorzar.",
      "total_distance_km": 45,
      "estimated_duration_hours": 1.5,
      "riding_time_hours": 1,
      "elevation_gain_m": 150,
      "elevation_max_m": 480,
      "roads_main": [
        "C-17",
        "BV-5202",
        "BV-5201"
      ],
      "esmorzar": {
        "town": "Manlleu",
        "comarca": "Osona",
        "lat": 41.874,
        "lng": 2.284,
        "specialty": "Esmorzar de forquilla amb embotits de Vic i pa de coca",
        "confidence": "recommended"
      },
      "route_type": "circular",
      "best_season": [
        "primavera",
        "estiu",
        "tardor",
        "hivern"
      ],
      "tags": [
        "riu",
        "pla",
        "principiant",
        "tranquil"
      ],
      "google_maps_url": "https://www.google.com/maps/dir/41.886,2.254/41.845,2.228/41.874,2.284/41.973,2.312/42.015,2.377/41.976,2.328/41.886,2.254",
      "waypoints": [
        {
          "name": "Vic",
          "lat": 41.886,
          "lng": 2.254,
          "type": "start",
          "road": "C-17"
        },
        {
          "name": "Tona",
          "lat": 41.845,
          "lng": 2.228,
          "type": "waypoint",
          "road": "C-17"
        },
        {
          "name": "Manlleu",
          "lat": 41.874,
          "lng": 2.284,
          "type": "esmorzar",
          "road": "BV-5202"
        },
        {
          "name": "Roda de Ter",
          "lat": 41.973,
          "lng": 2.312,
          "type": "waypoint",
          "road": "BV-5201"
        },
        {
          "name": "L'Esquirol",
          "lat": 42.015,
          "lng": 2.377,
          "type": "waypoint",
          "road": "BV-5201"
        },
        {
          "name": "Sant Martí Sescorts",
          "lat": 41.976,
          "lng": 2.328,
          "type": "waypoint",
          "road": "BV-5201"
        },
        {
          "name": "Vic",
          "lat": 41.886,
          "lng": 2.254,
          "type": "end",
          "road": "BV-5201"
        }
      ],
      "waypoints_source": "openai_verified",
      "verification": {
        "gpt_distance_km": 50,
        "gpt_duration_hours": 1.5,
        "distance_diff_pct": 0.11,
        "duration_diff_pct": 0.0,
        "plausible": true,
        "notes": "The route is plausible and closely follows the specified roads. The estimated distance and duration are slightly adjusted based on actual road conditions and speed limits."
      }
    },
    {
      "id": "ruta-069",
      "number": 69,
      "name": "Capellades i la Pobla de Claramunt",
      "slug": "capellades-i-la-pobla-de-claramunt",
      "category": "aprendiz",
      "difficulty": 1,
      "starting_hub": "Igualada / Anoia",
      "starting_point": {
        "name": "Igualada",
        "comarca": "Anoia",
        "lat": 41.579,
        "lng": 1.617
      },
      "comarca_principal": "Anoia",
      "summary": "Circuit curt pels voltants d'Igualada passant per Capellades, famosa pel seu molí paperer, i la Pobla de Claramunt amb el seu castell medieval enlairat. Carreteres amples i suaus amb poc trànsit, ideals per a principiants. El paisatge de la conca de l'Anoia és verd i tranquil.",
      "total_distance_km": 45,
      "estimated_duration_hours": 1.5,
      "riding_time_hours": 1,
      "elevation_gain_m": 250,
      "elevation_max_m": 450,
      "roads_main": [
        "C-15",
        "B-224",
        "BV-2136"
      ],
      "esmorzar": {
        "town": "Capellades",
        "comarca": "Anoia",
        "lat": 41.531,
        "lng": 1.686,
        "specialty": "Esmorzar de forquilla amb truita de patates i embotits locals al centre",
        "confidence": "recommended"
      },
      "route_type": "circular",
      "best_season": [
        "primavera",
        "estiu",
        "tardor",
        "hivern"
      ],
      "tags": [
        "patrimoni",
        "principiant",
        "tranquil",
        "pobles"
      ],
      "google_maps_url": "https://www.google.com/maps/dir/41.579,1.617/41.553,1.647/41.531,1.686/41.548,1.698/41.558,1.68/41.579,1.617",
      "waypoints": [
        {
          "name": "Igualada",
          "lat": 41.579,
          "lng": 1.617,
          "type": "start",
          "road": "C-15"
        },
        {
          "name": "Intersection C-15 and B-224",
          "lat": 41.553,
          "lng": 1.647,
          "type": "waypoint",
          "road": "C-15"
        },
        {
          "name": "Capellades",
          "lat": 41.531,
          "lng": 1.686,
          "type": "esmorzar",
          "road": "B-224"
        },
        {
          "name": "Intersection B-224 and BV-2136",
          "lat": 41.548,
          "lng": 1.698,
          "type": "waypoint",
          "road": "B-224"
        },
        {
          "name": "La Pobla de Claramunt",
          "lat": 41.558,
          "lng": 1.68,
          "type": "waypoint",
          "road": "BV-2136"
        },
        {
          "name": "Return to Igualada",
          "lat": 41.579,
          "lng": 1.617,
          "type": "end",
          "road": "BV-2136"
        }
      ],
      "waypoints_source": "openai_verified",
      "verification": {
        "gpt_distance_km": 48,
        "gpt_duration_hours": 1.5,
        "distance_diff_pct": 0.07,
        "duration_diff_pct": 0.0,
        "plausible": true,
        "notes": "The route closely follows the specified roads and includes the breakfast stop at Capellades. The estimated distance is slightly higher than claimed, but the duration aligns with the expected travel time."
      }
    },
    {
      "id": "ruta-070",
      "number": 70,
      "name": "Vinyes de l'Anoia",
      "slug": "vinyes-de-lanoia",
      "category": "aprendiz",
      "difficulty": 2,
      "starting_hub": "Igualada / Anoia",
      "starting_point": {
        "name": "Igualada",
        "comarca": "Anoia",
        "lat": 41.579,
        "lng": 1.617
      },
      "comarca_principal": "Anoia",
      "summary": "Ruta suau entre les vinyes i els cellers de la zona sud de l'Anoia, on comença la transició cap al Penedès. Carreteres comarcals tranquil·les entre Masquefa, Piera i els Hostalets de Pierola. Un recorregut per gaudir del paisatge agrícola i descobrir petits cellers familiars.",
      "total_distance_km": 75,
      "estimated_duration_hours": 2,
      "riding_time_hours": 1.5,
      "elevation_gain_m": 350,
      "elevation_max_m": 420,
      "roads_main": [
        "B-224",
        "BV-2249",
        "BV-2242",
        "C-15"
      ],
      "esmorzar": {
        "town": "Piera",
        "comarca": "Anoia",
        "lat": 41.521,
        "lng": 1.748,
        "specialty": "Entrepà de fuet amb tomàquet i oli d'oliva, acompanyat d'un cava del Penedès",
        "confidence": "recommended"
      },
      "route_type": "circular",
      "best_season": [
        "primavera",
        "tardor"
      ],
      "tags": [
        "vinyes",
        "principiant",
        "cellers",
        "paisatge"
      ],
      "waypoints": [
        {
          "name": "Igualada (sortida)",
          "lat": 41.579,
          "lng": 1.617,
          "type": "start"
        },
        {
          "name": "Masquefa",
          "lat": 41.503,
          "lng": 1.813,
          "type": "waypoint"
        },
        {
          "name": "Piera (centre)",
          "lat": 41.521,
          "lng": 1.748,
          "type": "esmorzar"
        },
        {
          "name": "Mirador de les vinyes (BV-2242)",
          "lat": 41.535,
          "lng": 1.722,
          "type": "viewpoint"
        },
        {
          "name": "Hostalets de Pierola",
          "lat": 41.532,
          "lng": 1.801,
          "type": "waypoint"
        },
        {
          "name": "Igualada (arribada)",
          "lat": 41.579,
          "lng": 1.617,
          "type": "end"
        }
      ],
      "google_maps_url": "https://www.google.com/maps/dir/41.579,1.617/41.503,1.813/41.521,1.748/41.535,1.722/41.532,1.801/41.579,1.617"
    },
    {
      "id": "ruta-071",
      "number": 71,
      "name": "Montserrat Fàcil: El Bruc i Collbató",
      "slug": "montserrat-facil-el-bruc-i-collbato",
      "category": "aprendiz",
      "difficulty": 2,
      "starting_hub": "Igualada / Anoia",
      "starting_point": {
        "name": "Igualada",
        "comarca": "Anoia",
        "lat": 41.579,
        "lng": 1.617
      },
      "comarca_principal": "Anoia",
      "summary": "Aproximació a Montserrat sense la dificultat dels ports de muntanya. Des d'Igualada fins a El Bruc i Collbató per carreteres còmodes, amb vistes espectaculars a les agulles de Montserrat des de baix. Una ruta curta per contemplar la muntanya sagrada de Catalunya sense comprometre la seguretat.",
      "total_distance_km": 65,
      "estimated_duration_hours": 2,
      "riding_time_hours": 1,
      "elevation_gain_m": 400,
      "elevation_max_m": 560,
      "roads_main": [
        "B-112",
        "BP-1101",
        "C-37"
      ],
      "esmorzar": {
        "town": "Collbató",
        "comarca": "Baix Llobregat",
        "lat": 41.573,
        "lng": 1.825,
        "specialty": "Esmorzar de pa amb tomàquet, pernil ibèric i vistes a Montserrat",
        "confidence": "recommended"
      },
      "route_type": "anada-i-tornada",
      "best_season": [
        "primavera",
        "tardor",
        "hivern"
      ],
      "tags": [
        "montserrat",
        "principiant",
        "vistes",
        "accessible"
      ],
      "google_maps_url": "https://www.google.com/maps/dir/41.579,1.617/41.575,1.65/41.582,1.737/41.573,1.825/41.592,1.833/41.582,1.737/41.579,1.617",
      "waypoints": [
        {
          "name": "Igualada",
          "lat": 41.579,
          "lng": 1.617,
          "type": "start",
          "road": "C-37"
        },
        {
          "name": "Intersection B-112 / C-37",
          "lat": 41.575,
          "lng": 1.65,
          "type": "waypoint",
          "road": "B-112"
        },
        {
          "name": "El Bruc",
          "lat": 41.582,
          "lng": 1.737,
          "type": "waypoint",
          "road": "B-112"
        },
        {
          "name": "Collbató",
          "lat": 41.573,
          "lng": 1.825,
          "type": "esmorzar",
          "road": "BP-1101"
        },
        {
          "name": "Montserrat Viewpoint",
          "lat": 41.592,
          "lng": 1.833,
          "type": "viewpoint",
          "road": "BP-1101"
        },
        {
          "name": "Return to El Bruc",
          "lat": 41.582,
          "lng": 1.737,
          "type": "waypoint",
          "road": "B-112"
        },
        {
          "name": "Return to Igualada",
          "lat": 41.579,
          "lng": 1.617,
          "type": "end",
          "road": "C-37"
        }
      ],
      "waypoints_source": "openai_verified",
      "verification": {
        "gpt_distance_km": 70,
        "gpt_duration_hours": 2.0,
        "distance_diff_pct": 0.08,
        "duration_diff_pct": 0.0,
        "plausible": true,
        "notes": "The route follows scenic secondary roads with a slight detour for a viewpoint. The estimated distance and duration are close to the claimed values."
      }
    },
    {
      "id": "ruta-080",
      "number": 80,
      "name": "Les Garrigues i l'Oli d'Oliva",
      "slug": "les-garrigues-i-loli-doliva",
      "category": "aprendiz",
      "difficulty": 1,
      "starting_hub": "Lleida / Segrià",
      "starting_point": {
        "name": "Lleida",
        "comarca": "Segrià",
        "lat": 41.617,
        "lng": 0.62
      },
      "comarca_principal": "Garrigues",
      "summary": "Circuit suau per les terres de l'oli: camps d'oliveres fins a l'horitzó, pobles de pedra com Borges Blanques i les Borges del Camp, i carreteres planes i amples ideals per a qui comença. L'esmorzar amb pa amb oli dels Arbequina és obligat.",
      "total_distance_km": 85,
      "estimated_duration_hours": 2.0,
      "riding_time_hours": 1.5,
      "elevation_gain_m": 350,
      "elevation_max_m": 480,
      "roads_main": [
        "L-202",
        "C-233",
        "L-501"
      ],
      "esmorzar": {
        "town": "Les Borges Blanques",
        "comarca": "Garrigues",
        "lat": 41.513,
        "lng": 0.859,
        "specialty": "Pa torrat amb oli d'oliva arbequina i pernil",
        "confidence": "recommended"
      },
      "route_type": "circular",
      "best_season": [
        "primavera",
        "tardor",
        "hivern"
      ],
      "tags": [
        "garrigues",
        "gastronomia",
        "oli",
        "suau"
      ],
      "google_maps_url": "https://www.google.com/maps/dir/41.617,0.62/41.548,0.822/41.513,0.859/41.527,0.915/41.558,1.011/41.448,0.976/41.431,0.895/41.617,0.62",
      "waypoints": [
        {
          "name": "Lleida",
          "lat": 41.617,
          "lng": 0.62,
          "type": "start",
          "road": "N-240"
        },
        {
          "name": "Juneda",
          "lat": 41.548,
          "lng": 0.822,
          "type": "waypoint",
          "road": "L-202"
        },
        {
          "name": "Les Borges Blanques",
          "lat": 41.513,
          "lng": 0.859,
          "type": "esmorzar",
          "road": "C-233"
        },
        {
          "name": "Arbeca",
          "lat": 41.527,
          "lng": 0.915,
          "type": "waypoint",
          "road": "C-233"
        },
        {
          "name": "Belianes",
          "lat": 41.558,
          "lng": 1.011,
          "type": "waypoint",
          "road": "L-501"
        },
        {
          "name": "Vinaixa",
          "lat": 41.448,
          "lng": 0.976,
          "type": "waypoint",
          "road": "L-501"
        },
        {
          "name": "L'Albi",
          "lat": 41.431,
          "lng": 0.895,
          "type": "waypoint",
          "road": "L-501"
        },
        {
          "name": "Lleida",
          "lat": 41.617,
          "lng": 0.62,
          "type": "end",
          "road": "N-240"
        }
      ],
      "waypoints_source": "openai_verified",
      "verification": {
        "gpt_distance_km": 90,
        "gpt_duration_hours": 2.2,
        "distance_diff_pct": 0.06,
        "duration_diff_pct": 0.1,
        "plausible": true,
        "notes": "The route follows the specified roads closely and the estimated distance and duration are slightly higher than claimed, but plausible for a leisurely motorcycle ride."
      }
    },
    {
      "id": "ruta-081",
      "number": 81,
      "name": "Pobles de l'Urgell",
      "slug": "pobles-de-lurgell",
      "category": "aprendiz",
      "difficulty": 1,
      "starting_hub": "Lleida / Segrià",
      "starting_point": {
        "name": "Lleida",
        "comarca": "Segrià",
        "lat": 41.617,
        "lng": 0.62
      },
      "comarca_principal": "Urgell",
      "summary": "Passeig tranquil pels pobles de l'Urgell: Tàrrega amb el seu teatre, Agramunt i el seu torró famós, i Bellpuig amb l'elegància del seu convent. Carreteres rectes entre camps de blat i fruiters, perfectes per agafar confiança amb la moto.",
      "total_distance_km": 80,
      "estimated_duration_hours": 2.0,
      "riding_time_hours": 1.5,
      "elevation_gain_m": 280,
      "elevation_max_m": 430,
      "roads_main": [
        "C-14",
        "L-303",
        "C-53"
      ],
      "esmorzar": {
        "town": "Agramunt",
        "comarca": "Urgell",
        "lat": 41.789,
        "lng": 1.1,
        "specialty": "Torró d'Agramunt i xocolata desfeta amb coca de forner",
        "confidence": "recommended"
      },
      "route_type": "circular",
      "best_season": [
        "primavera",
        "tardor",
        "hivern"
      ],
      "tags": [
        "urgell",
        "pobles",
        "cultura",
        "suau"
      ],
      "google_maps_url": "https://www.google.com/maps/dir/41.617,0.62/41.647,1.139/41.789,1.1/41.783,1.071/41.873,1.051/41.916,1.186/41.647,1.139/41.617,0.62",
      "waypoints": [
        {
          "name": "Lleida",
          "lat": 41.617,
          "lng": 0.62,
          "type": "start",
          "road": "C-14"
        },
        {
          "name": "Tàrrega",
          "lat": 41.647,
          "lng": 1.139,
          "type": "waypoint",
          "road": "C-14"
        },
        {
          "name": "Agramunt",
          "lat": 41.789,
          "lng": 1.1,
          "type": "esmorzar",
          "road": "L-303"
        },
        {
          "name": "Preixens",
          "lat": 41.783,
          "lng": 1.071,
          "type": "waypoint",
          "road": "L-303"
        },
        {
          "name": "Artesa de Segre",
          "lat": 41.873,
          "lng": 1.051,
          "type": "waypoint",
          "road": "C-14"
        },
        {
          "name": "Ponts",
          "lat": 41.916,
          "lng": 1.186,
          "type": "waypoint",
          "road": "C-14"
        },
        {
          "name": "Tàrrega",
          "lat": 41.647,
          "lng": 1.139,
          "type": "waypoint",
          "road": "C-53"
        },
        {
          "name": "Lleida",
          "lat": 41.617,
          "lng": 0.62,
          "type": "end",
          "road": "C-53"
        }
      ],
      "waypoints_source": "openai_verified",
      "verification": {
        "gpt_distance_km": 85,
        "gpt_duration_hours": 1.8,
        "distance_diff_pct": 0.06,
        "duration_diff_pct": 0.1,
        "plausible": true,
        "notes": "The route follows the specified roads closely and is plausible as a circular route. The estimated distance and duration are slightly less than claimed, likely due to more direct routing."
      }
    },
    {
      "id": "ruta-082",
      "number": 82,
      "name": "Raimat i els Vinyers del Segrià",
      "slug": "raimat-i-els-vinyers-del-segria",
      "category": "aprendiz",
      "difficulty": 1,
      "starting_hub": "Lleida / Segrià",
      "starting_point": {
        "name": "Lleida",
        "comarca": "Segrià",
        "lat": 41.617,
        "lng": 0.62
      },
      "comarca_principal": "Segrià",
      "summary": "Ruta curta i accessible pels voltants de Lleida: Raimat amb el seu castell i vinyes, Alcarràs entre fruiters, i tornada per la ribera del Segre. Ideal per a la primera sortida en moto, amb rectes llargues i alguna corba suau per practicar.",
      "total_distance_km": 55,
      "estimated_duration_hours": 1.5,
      "riding_time_hours": 1.0,
      "elevation_gain_m": 180,
      "elevation_max_m": 310,
      "roads_main": [
        "L-700",
        "L-504"
      ],
      "esmorzar": {
        "town": "Raimat",
        "comarca": "Segrià",
        "lat": 41.658,
        "lng": 0.478,
        "specialty": "Esmorzar entre vinyes amb embotits i vi blanc de Raimat",
        "confidence": "area"
      },
      "route_type": "circular",
      "best_season": [
        "primavera",
        "estiu",
        "tardor"
      ],
      "tags": [
        "vinyes",
        "segrià",
        "suau",
        "gastronomia"
      ],
      "google_maps_url": "https://www.google.com/maps/dir/41.617,0.62/41.635,0.58/41.658,0.478/41.665,0.45/41.691,0.49/41.675,0.53/41.65,0.57/41.617,0.62",
      "waypoints": [
        {
          "name": "Lleida",
          "lat": 41.617,
          "lng": 0.62,
          "type": "start",
          "road": "L-700"
        },
        {
          "name": "Intersection L-700 & L-702",
          "lat": 41.635,
          "lng": 0.58,
          "type": "waypoint",
          "road": "L-700"
        },
        {
          "name": "Raimat",
          "lat": 41.658,
          "lng": 0.478,
          "type": "esmorzar",
          "road": "L-700"
        },
        {
          "name": "Intersection L-700 & L-504",
          "lat": 41.665,
          "lng": 0.45,
          "type": "waypoint",
          "road": "L-504"
        },
        {
          "name": "Vilanova de Segrià",
          "lat": 41.691,
          "lng": 0.49,
          "type": "waypoint",
          "road": "L-504"
        },
        {
          "name": "Intersection L-504 & L-702",
          "lat": 41.675,
          "lng": 0.53,
          "type": "waypoint",
          "road": "L-504"
        },
        {
          "name": "Intersection L-702 & L-700",
          "lat": 41.65,
          "lng": 0.57,
          "type": "waypoint",
          "road": "L-700"
        },
        {
          "name": "Lleida",
          "lat": 41.617,
          "lng": 0.62,
          "type": "end",
          "road": "L-700"
        }
      ],
      "waypoints_source": "openai_verified",
      "verification": {
        "gpt_distance_km": 55,
        "gpt_duration_hours": 1.5,
        "distance_diff_pct": 0.0,
        "duration_diff_pct": 0.0,
        "plausible": true,
        "notes": "The route follows the specified roads and matches the claimed distance and duration."
      }
    },
    {
      "id": "ruta-083",
      "number": 83,
      "name": "Balaguer i la Noguera Suau",
      "slug": "balaguer-i-la-noguera-suau",
      "category": "aprendiz",
      "difficulty": 2,
      "starting_hub": "Lleida / Segrià",
      "starting_point": {
        "name": "Lleida",
        "comarca": "Segrià",
        "lat": 41.617,
        "lng": 0.62
      },
      "comarca_principal": "Noguera",
      "summary": "Pujada suau fins a Balaguer seguint el riu Segre, amb el castell i el centre medieval com a recompensa. Extensió fins a Os de Balaguer i tornada pel pla, amb algunes corbes que comencen a dibuixar el Prepirineu sense demanar gaire compromís.",
      "total_distance_km": 95,
      "estimated_duration_hours": 2.5,
      "riding_time_hours": 1.5,
      "elevation_gain_m": 450,
      "elevation_max_m": 540,
      "roads_main": [
        "C-12",
        "C-13",
        "L-904"
      ],
      "esmorzar": {
        "town": "Balaguer",
        "comarca": "Noguera",
        "lat": 41.79,
        "lng": 0.805,
        "specialty": "Esmorzar de forquilla al centre de Balaguer amb botifarra a la brasa",
        "confidence": "recommended"
      },
      "route_type": "circular",
      "best_season": [
        "primavera",
        "tardor",
        "hivern"
      ],
      "tags": [
        "noguera",
        "medieval",
        "riu",
        "suau"
      ],
      "waypoints": [
        {
          "name": "Lleida (sortida)",
          "lat": 41.617,
          "lng": 0.62,
          "type": "start"
        },
        {
          "name": "Térmens",
          "lat": 41.718,
          "lng": 0.724,
          "type": "waypoint"
        },
        {
          "name": "Balaguer (centre medieval)",
          "lat": 41.79,
          "lng": 0.805,
          "type": "esmorzar"
        },
        {
          "name": "Castell de Balaguer (mirador)",
          "lat": 41.792,
          "lng": 0.808,
          "type": "viewpoint"
        },
        {
          "name": "Os de Balaguer",
          "lat": 41.867,
          "lng": 0.729,
          "type": "waypoint"
        },
        {
          "name": "Lleida (arribada)",
          "lat": 41.617,
          "lng": 0.62,
          "type": "end"
        }
      ],
      "google_maps_url": "https://www.google.com/maps/dir/41.617,0.62/41.718,0.724/41.79,0.805/41.792,0.808/41.867,0.729/41.617,0.62"
    },
    {
      "id": "ruta-090",
      "number": 90,
      "name": "Altafulla i la Costa de Llevant",
      "slug": "altafulla-i-la-costa-de-llevant",
      "category": "aprendiz",
      "difficulty": 1,
      "starting_hub": "Tarragona / Camp",
      "starting_point": {
        "name": "Tarragona",
        "comarca": "Tarragonès",
        "lat": 41.119,
        "lng": 1.245
      },
      "comarca_principal": "Tarragonès",
      "summary": "Passeig costaner suau des de Tarragona fins a Altafulla i Torredembarra, amb el mar sempre a la vista. Carreteres planes i amples, ideals per a principiants que volen gaudir del Mediterrani sense complicacions tècniques.",
      "total_distance_km": 50,
      "estimated_duration_hours": 1.5,
      "riding_time_hours": 1.0,
      "elevation_gain_m": 150,
      "elevation_max_m": 80,
      "roads_main": [
        "N-340",
        "C-31",
        "TV-2041"
      ],
      "esmorzar": {
        "town": "Altafulla",
        "comarca": "Tarragonès",
        "lat": 41.142,
        "lng": 1.377,
        "specialty": "Esmorzar de platja amb pa amb tomàquet i anxoves del Mediterrani",
        "confidence": "recommended"
      },
      "route_type": "anada-i-tornada",
      "best_season": [
        "primavera",
        "estiu",
        "tardor"
      ],
      "tags": [
        "costa",
        "mar",
        "suau",
        "mediterrani"
      ],
      "google_maps_url": "https://www.google.com/maps/dir/41.119,1.245/41.134,1.307/41.142,1.377/41.146,1.396/41.172,1.454/41.188,1.475/41.142,1.377/41.119,1.245",
      "waypoints": [
        {
          "name": "Tarragona",
          "lat": 41.119,
          "lng": 1.245,
          "type": "start",
          "road": "N-340"
        },
        {
          "name": "La Mora",
          "lat": 41.134,
          "lng": 1.307,
          "type": "waypoint",
          "road": "N-340"
        },
        {
          "name": "Altafulla",
          "lat": 41.142,
          "lng": 1.377,
          "type": "esmorzar",
          "road": "N-340"
        },
        {
          "name": "Torredembarra",
          "lat": 41.146,
          "lng": 1.396,
          "type": "waypoint",
          "road": "C-31"
        },
        {
          "name": "Creixell",
          "lat": 41.172,
          "lng": 1.454,
          "type": "waypoint",
          "road": "C-31"
        },
        {
          "name": "Roda de Berà",
          "lat": 41.188,
          "lng": 1.475,
          "type": "waypoint",
          "road": "C-31"
        },
        {
          "name": "Altafulla",
          "lat": 41.142,
          "lng": 1.377,
          "type": "waypoint",
          "road": "N-340"
        },
        {
          "name": "Tarragona",
          "lat": 41.119,
          "lng": 1.245,
          "type": "end",
          "road": "N-340"
        }
      ],
      "waypoints_source": "openai_verified",
      "verification": {
        "gpt_distance_km": 45,
        "gpt_duration_hours": 1.2,
        "distance_diff_pct": 0.1,
        "duration_diff_pct": 0.2,
        "plausible": true,
        "notes": "The route closely follows the specified roads and matches the claimed distance and duration. The out-and-back nature of the route ensures a return to Tarragona."
      }
    },
    {
      "id": "ruta-091",
      "number": 91,
      "name": "Poblet i L'Espluga Curta",
      "slug": "poblet-i-lespluga-curta",
      "category": "aprendiz",
      "difficulty": 2,
      "starting_hub": "Tarragona / Camp",
      "starting_point": {
        "name": "Tarragona",
        "comarca": "Tarragonès",
        "lat": 41.119,
        "lng": 1.245
      },
      "comarca_principal": "Conca de Barberà",
      "summary": "Escapada curta al Monestir de Poblet per la C-14, amb parada a L'Espluga de Francolí. Carretera ben senyalitzada amb pendent moderat i algunes corbes per anar agafant ritme. Un tast del Prepirineu sense sortir de la zona de confort.",
      "total_distance_km": 90,
      "estimated_duration_hours": 2.0,
      "riding_time_hours": 1.5,
      "elevation_gain_m": 600,
      "elevation_max_m": 530,
      "roads_main": [
        "C-14",
        "C-240",
        "TP-2031"
      ],
      "esmorzar": {
        "town": "L'Espluga de Francolí",
        "comarca": "Conca de Barberà",
        "lat": 41.393,
        "lng": 1.098,
        "specialty": "Embotits de la Conca amb pa de forn de llenya i vi blanc",
        "confidence": "recommended"
      },
      "route_type": "circular",
      "best_season": [
        "primavera",
        "tardor",
        "hivern"
      ],
      "tags": [
        "monestir",
        "patrimoni",
        "suau",
        "cultura"
      ],
      "google_maps_url": "https://www.google.com/maps/dir/41.119,1.245/41.286,1.249/41.375,1.161/41.393,1.098/41.377,1.055/41.393,1.098/41.334,1.183/41.119,1.245",
      "waypoints": [
        {
          "name": "Tarragona",
          "lat": 41.119,
          "lng": 1.245,
          "type": "start",
          "road": "N-240"
        },
        {
          "name": "Valls",
          "lat": 41.286,
          "lng": 1.249,
          "type": "waypoint",
          "road": "C-14"
        },
        {
          "name": "Montblanc",
          "lat": 41.375,
          "lng": 1.161,
          "type": "waypoint",
          "road": "C-14"
        },
        {
          "name": "L'Espluga de Francolí",
          "lat": 41.393,
          "lng": 1.098,
          "type": "esmorzar",
          "road": "C-14"
        },
        {
          "name": "Poblet Monastery",
          "lat": 41.377,
          "lng": 1.055,
          "type": "waypoint",
          "road": "C-14"
        },
        {
          "name": "Espluga de Francolí Intersection",
          "lat": 41.393,
          "lng": 1.098,
          "type": "waypoint",
          "road": "C-240"
        },
        {
          "name": "La Riba",
          "lat": 41.334,
          "lng": 1.183,
          "type": "waypoint",
          "road": "TP-2031"
        },
        {
          "name": "Tarragona",
          "lat": 41.119,
          "lng": 1.245,
          "type": "end",
          "road": "N-240"
        }
      ],
      "waypoints_source": "openai_verified",
      "verification": {
        "gpt_distance_km": 95,
        "gpt_duration_hours": 2.5,
        "distance_diff_pct": 0.06,
        "duration_diff_pct": 0.25,
        "plausible": true,
        "notes": "The route is plausible and follows the specified roads. The estimated distance and duration are slightly higher than claimed due to road conditions and speed limits."
      }
    },
    {
      "id": "ruta-092",
      "number": 92,
      "name": "Reus, Siurana Aprendiz",
      "slug": "reus-siurana-aprendiz",
      "category": "aprendiz",
      "difficulty": 2,
      "starting_hub": "Tarragona / Camp",
      "starting_point": {
        "name": "Tarragona",
        "comarca": "Tarragonès",
        "lat": 41.119,
        "lng": 1.245
      },
      "comarca_principal": "Baix Camp",
      "summary": "Versió curta i accessible de la pujada a Siurana: des de Tarragona fins a Reus i pujada suau cap a Cornudella de Montsant, sense arribar al tram final del cingle. Un primer contacte amb les corbes del Priorat sense les dificultats del tram extrem.",
      "total_distance_km": 100,
      "estimated_duration_hours": 2.5,
      "riding_time_hours": 1.5,
      "elevation_gain_m": 700,
      "elevation_max_m": 620,
      "roads_main": [
        "C-14",
        "T-710",
        "C-242"
      ],
      "esmorzar": {
        "town": "Cornudella de Montsant",
        "comarca": "Priorat",
        "lat": 41.231,
        "lng": 0.903,
        "specialty": "Esmorzar amb coca de recapte i oli de les cooperatives del Priorat",
        "confidence": "recommended"
      },
      "route_type": "circular",
      "best_season": [
        "primavera",
        "tardor"
      ],
      "tags": [
        "priorat",
        "corbes",
        "suau",
        "introducció"
      ],
      "google_maps_url": "https://www.google.com/maps/dir/41.119,1.245/41.286,1.249/41.375,1.161/41.258,0.892/41.231,0.903/41.256,0.899/41.217,0.977/41.156,1.106/41.119,1.245",
      "waypoints": [
        {
          "name": "Tarragona",
          "lat": 41.119,
          "lng": 1.245,
          "type": "start",
          "road": "C-14"
        },
        {
          "name": "Valls",
          "lat": 41.286,
          "lng": 1.249,
          "type": "waypoint",
          "road": "C-14"
        },
        {
          "name": "Montblanc",
          "lat": 41.375,
          "lng": 1.161,
          "type": "waypoint",
          "road": "C-14"
        },
        {
          "name": "Poboleda",
          "lat": 41.258,
          "lng": 0.892,
          "type": "waypoint",
          "road": "T-702"
        },
        {
          "name": "Cornudella de Montsant",
          "lat": 41.231,
          "lng": 0.903,
          "type": "esmorzar",
          "road": "C-242"
        },
        {
          "name": "Siurana",
          "lat": 41.256,
          "lng": 0.899,
          "type": "viewpoint",
          "road": "C-242"
        },
        {
          "name": "Alforja",
          "lat": 41.217,
          "lng": 0.977,
          "type": "waypoint",
          "road": "C-242"
        },
        {
          "name": "Reus",
          "lat": 41.156,
          "lng": 1.106,
          "type": "waypoint",
          "road": "T-11"
        },
        {
          "name": "Tarragona",
          "lat": 41.119,
          "lng": 1.245,
          "type": "end",
          "road": "T-11"
        }
      ],
      "waypoints_source": "openai_verified",
      "verification": {
        "gpt_distance_km": 110,
        "gpt_duration_hours": 2.5,
        "distance_diff_pct": 0.1,
        "duration_diff_pct": 0.0,
        "plausible": true,
        "notes": "The route follows the specified roads and includes a scenic detour to Siurana. The estimated distance and duration are consistent with the claimed values."
      }
    },
    {
      "id": "ruta-098",
      "number": 98,
      "name": "Delta de l'Ebre Aprendiz",
      "slug": "delta-de-lebre-aprendiz",
      "category": "aprendiz",
      "difficulty": 1,
      "starting_hub": "Tortosa / Terres de l'Ebre",
      "starting_point": {
        "name": "Tortosa",
        "comarca": "Baix Ebre",
        "lat": 40.812,
        "lng": 0.521
      },
      "comarca_principal": "Baix Ebre",
      "summary": "Versió curta i plana del Delta de l'Ebre: baixada fins a Deltebre i recorregut per l'hemidelta esquerre amb parades als miradors d'aus i els arrossars. Zero corbes, zero pendents, cent per cent paisatge. Ideal per a qui tot just comença.",
      "total_distance_km": 65,
      "estimated_duration_hours": 2.0,
      "riding_time_hours": 1.0,
      "elevation_gain_m": 80,
      "elevation_max_m": 15,
      "roads_main": [
        "C-12",
        "TV-3405",
        "TV-3406"
      ],
      "esmorzar": {
        "town": "Deltebre",
        "comarca": "Baix Ebre",
        "lat": 40.721,
        "lng": 0.726,
        "specialty": "Arròs del Delta amb verdures de l'hort i musclos de la badia",
        "confidence": "recommended"
      },
      "route_type": "anada-i-tornada",
      "best_season": [
        "primavera",
        "tardor",
        "hivern"
      ],
      "tags": [
        "delta",
        "aus",
        "pla",
        "suau"
      ],
      "google_maps_url": "https://www.google.com/maps/dir/40.812,0.521/40.716,0.581/40.719,0.702/40.721,0.726/40.72,0.715/40.716,0.581/40.812,0.521",
      "waypoints": [
        {
          "name": "Tortosa",
          "lat": 40.812,
          "lng": 0.521,
          "type": "start",
          "road": "C-12"
        },
        {
          "name": "Amposta",
          "lat": 40.716,
          "lng": 0.581,
          "type": "waypoint",
          "road": "C-12"
        },
        {
          "name": "Sant Jaume d'Enveja",
          "lat": 40.719,
          "lng": 0.702,
          "type": "waypoint",
          "road": "TV-3405"
        },