{
  "category": "pro",
  "total": 66,
  "routes": [
    {
      "id": "ruta-001",
      "number": 1,
      "name": "El Coll de Pal i les Valls del Berguedà",
      "slug": "coll-de-pal-valls-bergueda",
      "category": "pro",
      "difficulty": 4,
      "starting_hub": "Manresa / Bages",
      "starting_point": {
        "name": "Manresa",
        "comarca": "Bages",
        "lat": 41.725,
        "lng": 1.826
      },
      "comarca_principal": "Berguedà",
      "summary": "Una ruta emblemàtica que remunta la C-16 fins a Berga i s'endinsa al cor del Berguedà per la BV-4024 fins al Coll de Pal, a 2.106 m d'altitud. Corbes tancades amb vistes espectaculars al Cadí-Moixeró i baixada per Bagà amb un esmorzar de forquilla memorable.",
      "total_distance_km": 195,
      "estimated_duration_hours": 4.5,
      "riding_time_hours": 3.5,
      "elevation_gain_m": 2800,
      "elevation_max_m": 2106,
      "roads_main": [
        "C-16",
        "BV-4024",
        "C-26",
        "B-400",
        "C-55"
      ],
      "esmorzar": {
        "town": "Bagà",
        "comarca": "Berguedà",
        "lat": 42.252,
        "lng": 1.861,
        "specialty": "Esmorzar de forquilla amb embotits del Berguedà i truita de patates casolana",
        "confidence": "recommended"
      },
      "route_type": "circular",
      "best_season": [
        "primavera",
        "estiu",
        "tardor"
      ],
      "tags": [
        "muntanya",
        "port",
        "corbes",
        "alta-muntanya",
        "vistes"
      ],
      "waypoints": [
        {
          "name": "Manresa (sortida)",
          "lat": 41.725,
          "lng": 1.826,
          "type": "start"
        },
        {
          "name": "Berga",
          "lat": 42.101,
          "lng": 1.847,
          "type": "waypoint"
        },
        {
          "name": "Bagà",
          "lat": 42.252,
          "lng": 1.861,
          "type": "esmorzar"
        },
        {
          "name": "Coll de Pal (2.106 m)",
          "lat": 42.268,
          "lng": 1.888,
          "type": "summit"
        },
        {
          "name": "Mirador del Pedraforca",
          "lat": 42.241,
          "lng": 1.782,
          "type": "viewpoint"
        },
        {
          "name": "Guardiola de Berguedà",
          "lat": 42.234,
          "lng": 1.783,
          "type": "waypoint"
        },
        {
          "name": "Manresa (arribada)",
          "lat": 41.725,
          "lng": 1.826,
          "type": "end"
        }
      ],
      "google_maps_url": "https://www.google.com/maps/dir/41.725,1.826/42.101,1.847/42.252,1.861/42.268,1.888/42.241,1.782/42.234,1.783/41.725,1.826"
    },
    {
      "id": "ruta-002",
      "number": 2,
      "name": "Solsona i el Port del Comte",
      "slug": "solsona-port-del-comte",
      "category": "pro",
      "difficulty": 4,
      "starting_hub": "Manresa / Bages",
      "starting_point": {
        "name": "Manresa",
        "comarca": "Bages",
        "lat": 41.725,
        "lng": 1.826
      },
      "comarca_principal": "Solsonès",
      "summary": "Ruta cap al nord pel cor del Solsonès, travessant paisatges agrícoles fins a Solsona i pujant al Port del Comte per la LV-4241. Revolts generosos amb asfalt net, vistes infinites cap als Pirineus i descens per la vall de la Vansa. Parada imprescindible a Solsona per un esmorzar pagès.",
      "total_distance_km": 210,
      "estimated_duration_hours": 5,
      "riding_time_hours": 4,
      "elevation_gain_m": 2600,
      "elevation_max_m": 1860,
      "roads_main": [
        "C-55",
        "C-25",
        "LV-4241",
        "L-401",
        "C-462"
      ],
      "esmorzar": {
        "town": "Solsona",
        "comarca": "Solsonès",
        "lat": 41.994,
        "lng": 1.518,
        "specialty": "Esmorzar pagès amb botifarra i mongetes del Solsonès",
        "confidence": "recommended"
      },
      "route_type": "circular",
      "best_season": [
        "primavera",
        "estiu",
        "tardor"
      ],
      "tags": [
        "muntanya",
        "port",
        "altiplà",
        "corbes",
        "paisatge"
      ],
      "google_maps_url": "https://www.google.com/maps/dir/41.725,1.826/41.754,1.788/41.914,1.683/41.994,1.518/42.052,1.464/42.118,1.586/42.169,1.576/42.171,1.563/41.994,1.518/41.725,1.826",
      "waypoints": [
        {
          "name": "Manresa",
          "lat": 41.725,
          "lng": 1.826,
          "type": "start",
          "road": "C-55"
        },
        {
          "name": "Sant Joan de Vilatorrada",
          "lat": 41.754,
          "lng": 1.788,
          "type": "waypoint",
          "road": "C-55"
        },
        {
          "name": "Cardona",
          "lat": 41.914,
          "lng": 1.683,
          "type": "waypoint",
          "road": "C-55"
        },
        {
          "name": "Solsona",
          "lat": 41.994,
          "lng": 1.518,
          "type": "esmorzar",
          "road": "C-25"
        },
        {
          "name": "Coll de Jou",
          "lat": 42.052,
          "lng": 1.464,
          "type": "summit",
          "road": "LV-4241"
        },
        {
          "name": "Sant Llorenç de Morunys",
          "lat": 42.118,
          "lng": 1.586,
          "type": "waypoint",
          "road": "L-401"
        },
        {
          "name": "Port del Comte",
          "lat": 42.169,
          "lng": 1.576,
          "type": "summit",
          "road": "C-462"
        },
        {
          "name": "La Coma i la Pedra",
          "lat": 42.171,
          "lng": 1.563,
          "type": "waypoint",
          "road": "C-462"
        },
        {
          "name": "Solsona",
          "lat": 41.994,
          "lng": 1.518,
          "type": "waypoint",
          "road": "C-462"
        },
        {
          "name": "Manresa",
          "lat": 41.725,
          "lng": 1.826,
          "type": "end",
          "road": "C-55"
        }
      ],
      "waypoints_source": "openai_verified",
      "verification": {
        "gpt_distance_km": 210,
        "gpt_duration_hours": 5,
        "distance_diff_pct": 0.0,
        "duration_diff_pct": 0.0,
        "plausible": true,
        "notes": "The route follows the specified roads closely and the estimated distance and duration align with the claimed values."
      }
    },
    {
      "id": "ruta-003",
      "number": 3,
      "name": "La Ruta de la Sal: Cardona i Súria",
      "slug": "ruta-de-la-sal-cardona-suria",
      "category": "pro",
      "difficulty": 3,
      "starting_hub": "Manresa / Bages",
      "starting_point": {
        "name": "Manresa",
        "comarca": "Bages",
        "lat": 41.725,
        "lng": 1.826
      },
      "comarca_principal": "Bages",
      "summary": "Un recorregut pel patrimoni miner del Bages que connecta Súria, Cardona i les seves impressionants mines de sal. Carreteres secundàries amb poc trànsit que serpentegen entre camps de cereals i turons, amb el castell de Cardona dominant l'horitzó. Tornada pel Cardener amb trams ràpids.",
      "total_distance_km": 145,
      "estimated_duration_hours": 3.5,
      "riding_time_hours": 2.5,
      "elevation_gain_m": 1400,
      "elevation_max_m": 750,
      "roads_main": [
        "C-55",
        "C-1410a",
        "B-420",
        "BV-3003",
        "C-25"
      ],
      "esmorzar": {
        "town": "Cardona",
        "comarca": "Bages",
        "lat": 41.912,
        "lng": 1.68,
        "specialty": "Esmorzar de forquilla amb vedella de Cardona i trinxat",
        "confidence": "recommended"
      },
      "route_type": "circular",
      "best_season": [
        "primavera",
        "estiu",
        "tardor",
        "hivern"
      ],
      "tags": [
        "patrimoni",
        "castell",
        "mines",
        "paisatge-rural"
      ],
      "google_maps_url": "https://www.google.com/maps/dir/41.725,1.826/41.833,1.753/41.822,1.774/41.912,1.68/41.933,1.632/41.822,1.694/41.824,1.895/41.725,1.826",
      "waypoints": [
        {
          "name": "Manresa",
          "lat": 41.725,
          "lng": 1.826,
          "type": "start",
          "road": "C-55"
        },
        {
          "name": "Súria",
          "lat": 41.833,
          "lng": 1.753,
          "type": "waypoint",
          "road": "C-55"
        },
        {
          "name": "Callús",
          "lat": 41.822,
          "lng": 1.774,
          "type": "waypoint",
          "road": "C-55"
        },
        {
          "name": "Cardona",
          "lat": 41.912,
          "lng": 1.68,
          "type": "esmorzar",
          "road": "C-1410a"
        },
        {
          "name": "Navès",
          "lat": 41.933,
          "lng": 1.632,
          "type": "waypoint",
          "road": "B-420"
        },
        {
          "name": "Sant Mateu de Bages",
          "lat": 41.822,
          "lng": 1.694,
          "type": "waypoint",
          "road": "BV-3003"
        },
        {
          "name": "Sallent",
          "lat": 41.824,
          "lng": 1.895,
          "type": "waypoint",
          "road": "C-25"
        },
        {
          "name": "Manresa",
          "lat": 41.725,
          "lng": 1.826,
          "type": "end",
          "road": "C-25"
        }
      ],
      "waypoints_source": "openai_verified",
      "verification": {
        "gpt_distance_km": 150,
        "gpt_duration_hours": 3.5,
        "distance_diff_pct": 0.03,
        "duration_diff_pct": 0.0,
        "plausible": true,
        "notes": "The route follows the specified roads closely and includes the breakfast stop in Cardona. The estimated distance and duration are slightly adjusted based on typical road conditions and speed limits."
      }
    },
    {
      "id": "ruta-004",
      "number": 4,
      "name": "Montserrat per les Carreteres del Vi",
      "slug": "montserrat-carreteres-del-vi",
      "category": "pro",
      "difficulty": 3,
      "starting_hub": "Manresa / Bages",
      "starting_point": {
        "name": "Manresa",
        "comarca": "Bages",
        "lat": 41.725,
        "lng": 1.826
      },
      "comarca_principal": "Bages",
      "summary": "Baixada des de Manresa cap a Montserrat per la BP-1101 amb vistes de la muntanya sagrada, i volta pel Pla de Bages entre vinyes de la DO Pla de Bages. Corbes suaus entre camps de vinya, ermites romàniques i cellers amb encant. Pujada al monestir per la BP-1103 amb revolts espectaculars.",
      "total_distance_km": 135,
      "estimated_duration_hours": 3.5,
      "riding_time_hours": 2.5,
      "elevation_gain_m": 1600,
      "elevation_max_m": 720,
      "roads_main": [
        "BP-1101",
        "BP-1103",
        "C-55",
        "BV-1221",
        "B-124"
      ],
      "esmorzar": {
        "town": "Monistrol de Montserrat",
        "comarca": "Bages",
        "lat": 41.61,
        "lng": 1.84,
        "specialty": "Entrepà de llonganissa de pagès amb tomàquet de Montserrat",
        "confidence": "recommended"
      },
      "route_type": "circular",
      "best_season": [
        "primavera",
        "tardor"
      ],
      "tags": [
        "vinyes",
        "montserrat",
        "romànic",
        "cultural",
        "corbes"
      ],
      "google_maps_url": "https://www.google.com/maps/dir/41.725,1.826/41.683,1.767/41.636,1.751/41.61,1.84/41.65,1.872/41.65,1.873/41.78,1.85/41.725,1.826",
      "waypoints": [
        {
          "name": "Manresa",
          "lat": 41.725,
          "lng": 1.826,
          "type": "start",
          "road": "BP-1101"
        },
        {
          "name": "Sant Salvador de Guardiola",
          "lat": 41.683,
          "lng": 1.767,
          "type": "waypoint",
          "road": "BP-1101"
        },
        {
          "name": "Coll de Can Maçana",
          "lat": 41.636,
          "lng": 1.751,
          "type": "summit",
          "road": "BP-1103"
        },
        {
          "name": "Monistrol de Montserrat",
          "lat": 41.61,
          "lng": 1.84,
          "type": "esmorzar",
          "road": "C-55"
        },
        {
          "name": "Sant Vicenç de Castellet",
          "lat": 41.65,
          "lng": 1.872,
          "type": "waypoint",
          "road": "C-55"
        },
        {
          "name": "Castellbell i el Vilar",
          "lat": 41.65,
          "lng": 1.873,
          "type": "waypoint",
          "road": "BV-1221"
        },
        {
          "name": "Santpedor",
          "lat": 41.78,
          "lng": 1.85,
          "type": "waypoint",
          "road": "B-124"
        },
        {
          "name": "Manresa",
          "lat": 41.725,
          "lng": 1.826,
          "type": "end",
          "road": "B-124"
        }
      ],
      "waypoints_source": "openai_verified",
      "verification": {
        "gpt_distance_km": 140,
        "gpt_duration_hours": 3.7,
        "distance_diff_pct": 0.04,
        "duration_diff_pct": 0.06,
        "plausible": true,
        "notes": "The route closely follows the specified roads and includes scenic views of Montserrat. The estimated distance and duration are slightly higher than claimed due to road conditions and speed limits."
      }
    },
    {
      "id": "ruta-005",
      "number": 5,
      "name": "El Moianès Profund",
      "slug": "moianes-profund",
      "category": "pro",
      "difficulty": 3,
      "starting_hub": "Manresa / Bages",
      "starting_point": {
        "name": "Manresa",
        "comarca": "Bages",
        "lat": 41.725,
        "lng": 1.826
      },
      "comarca_principal": "Moianès",
      "summary": "Exploració de la comarca més jove de Catalunya, el Moianès, per carreteres estretes i solitàries. De Manresa cap a Moià per la BV-1245, continuant per Santa Maria d'Oló i Castellcir entre boscos de pi roig i alzines. Trams tècnics amb revolts tancats que fan gaudir el motociclista exigent.",
      "total_distance_km": 140,
      "estimated_duration_hours": 3.5,
      "riding_time_hours": 3,
      "elevation_gain_m": 1800,
      "elevation_max_m": 850,
      "roads_main": [
        "BV-1245",
        "BV-1248",
        "B-124",
        "BV-4316",
        "C-59"
      ],
      "esmorzar": {
        "town": "Moià",
        "comarca": "Moianès",
        "lat": 41.811,
        "lng": 2.096,
        "specialty": "Esmorzar de forquilla amb ous i botifarra a la brasa al mercat de Moià",
        "confidence": "recommended"
      },
      "route_type": "circular",
      "best_season": [
        "primavera",
        "estiu",
        "tardor"
      ],
      "tags": [
        "carreteres-secundàries",
        "bosc",
        "tranquil",
        "corbes-tancades"
      ],
      "google_maps_url": "https://www.google.com/maps/dir/41.725,1.826/41.796,1.977/41.811,2.096/41.871,2.096/41.842,2.175/41.75,2.12/41.684,2.155/41.811,2.096/41.725,1.826",
      "waypoints": [
        {
          "name": "Manresa",
          "lat": 41.725,
          "lng": 1.826,
          "type": "start",
          "road": "BV-1245"
        },
        {
          "name": "Calders",
          "lat": 41.796,
          "lng": 1.977,
          "type": "waypoint",
          "road": "BV-1245"
        },
        {
          "name": "Moià",
          "lat": 41.811,
          "lng": 2.096,
          "type": "esmorzar",
          "road": "BV-1245"
        },
        {
          "name": "L'Estany",
          "lat": 41.871,
          "lng": 2.096,
          "type": "waypoint",
          "road": "BV-4316"
        },
        {
          "name": "Collsuspina",
          "lat": 41.842,
          "lng": 2.175,
          "type": "waypoint",
          "road": "B-124"
        },
        {
          "name": "Castellterçol",
          "lat": 41.75,
          "lng": 2.12,
          "type": "waypoint",
          "road": "B-124"
        },
        {
          "name": "Sant Feliu de Codines",
          "lat": 41.684,
          "lng": 2.155,
          "type": "waypoint",
          "road": "C-59"
        },
        {
          "name": "Moià",
          "lat": 41.811,
          "lng": 2.096,
          "type": "waypoint",
          "road": "C-59"
        },
        {
          "name": "Manresa",
          "lat": 41.725,
          "lng": 1.826,
          "type": "end",
          "road": "C-59"
        }
      ],
      "waypoints_source": "openai_verified",
      "verification": {
        "gpt_distance_km": 145,
        "gpt_duration_hours": 3.5,
        "distance_diff_pct": 0.04,
        "duration_diff_pct": 0.0,
        "plausible": true,
        "notes": "The route closely follows the specified roads and the estimated distance and time align with the claimed values."
      }
    },
    {
      "id": "ruta-006",
      "number": 6,
      "name": "La Vall del Cardener fins a Berga",
      "slug": "vall-cardener-berga",
      "category": "pro",
      "difficulty": 3,
      "starting_hub": "Manresa / Bages",
      "starting_point": {
        "name": "Manresa",
        "comarca": "Bages",
        "lat": 41.725,
        "lng": 1.826
      },
      "comarca_principal": "Berguedà",
      "summary": "Seguint el curs del riu Cardener, aquesta ruta puja per la C-55 fins a Cardona i després enllaça amb el Berguedà per carreteres comarcals. Travessa pobles amb caràcter com Navàs i Balsareny, amb un tram final cap a Berga per la C-1411a amb vistes al Pedraforca.",
      "total_distance_km": 160,
      "estimated_duration_hours": 4,
      "riding_time_hours": 3,
      "elevation_gain_m": 1600,
      "elevation_max_m": 900,
      "roads_main": [
        "C-55",
        "C-1411a",
        "C-16",
        "B-420",
        "BV-4235"
      ],
      "esmorzar": {
        "town": "Berga",
        "comarca": "Berguedà",
        "lat": 42.101,
        "lng": 1.846,
        "specialty": "Esmorzar de forquilla amb xai del Berguedà i trinxat amb rosta",
        "confidence": "recommended"
      },
      "route_type": "circular",
      "best_season": [
        "primavera",
        "estiu",
        "tardor"
      ],
      "tags": [
        "riu",
        "vall",
        "pobles",
        "paisatge"
      ],
      "google_maps_url": "https://www.google.com/maps/dir/41.725,1.826/41.754,1.801/41.914,1.682/41.829,1.75/42.101,1.846/42.133,1.857/42.166,1.825/42.03,1.879/41.9,1.875/41.725,1.826",
      "waypoints": [
        {
          "name": "Manresa",
          "lat": 41.725,
          "lng": 1.826,
          "type": "start",
          "road": "C-55"
        },
        {
          "name": "Sant Joan de Vilatorrada",
          "lat": 41.754,
          "lng": 1.801,
          "type": "waypoint",
          "road": "C-55"
        },
        {
          "name": "Cardona",
          "lat": 41.914,
          "lng": 1.682,
          "type": "waypoint",
          "road": "C-1411a"
        },
        {
          "name": "Súria",
          "lat": 41.829,
          "lng": 1.75,
          "type": "waypoint",
          "road": "C-55"
        },
        {
          "name": "Berga",
          "lat": 42.101,
          "lng": 1.846,
          "type": "esmorzar",
          "road": "C-16"
        },
        {
          "name": "Cercs",
          "lat": 42.133,
          "lng": 1.857,
          "type": "waypoint",
          "road": "C-16"
        },
        {
          "name": "Sant Corneli",
          "lat": 42.166,
          "lng": 1.825,
          "type": "waypoint",
          "road": "B-420"
        },
        {
          "name": "Gironella",
          "lat": 42.03,
          "lng": 1.879,
          "type": "waypoint",
          "road": "BV-4235"
        },
        {
          "name": "Navàs",
          "lat": 41.9,
          "lng": 1.875,
          "type": "waypoint",
          "road": "C-16"
        },
        {
          "name": "Manresa",
          "lat": 41.725,
          "lng": 1.826,
          "type": "end",
          "road": "C-55"
        }
      ],
      "waypoints_source": "openai_verified",
      "verification": {
        "gpt_distance_km": 195,
        "gpt_duration_hours": 4.5,
        "distance_diff_pct": 0.22,
        "duration_diff_pct": 0.12,
        "plausible": true,
        "notes": "The route covers scenic areas with a mix of main roads and smaller roads. The estimated distance and duration are slightly higher than claimed, likely due to the winding nature of some roads."
      }
    },
    {
      "id": "ruta-007",
      "number": 7,
      "name": "L'Eix Transversal: Bages a la Plana de Vic",
      "slug": "eix-transversal-bages-plana-vic",
      "category": "pro",
      "difficulty": 3,
      "starting_hub": "Manresa / Bages",
      "starting_point": {
        "name": "Manresa",
        "comarca": "Bages",
        "lat": 41.725,
        "lng": 1.826
      },
      "comarca_principal": "Osona",
      "summary": "De Manresa a Vic per l'Eix Transversal i tornada per les carreteres secundàries del Moianès. La C-25 ofereix un primer tram ràpid i fluid, mentre que la tornada per Tona, Centelles i Castellterçol regala un seguit de revolts entre camps i boscos amb una tranquil·litat absoluta.",
      "total_distance_km": 165,
      "estimated_duration_hours": 4,
      "riding_time_hours": 3,
      "elevation_gain_m": 1500,
      "elevation_max_m": 880,
      "roads_main": [
        "C-25",
        "C-17",
        "BV-1245",
        "B-124",
        "BV-4316"
      ],
      "esmorzar": {
        "town": "Vic",
        "comarca": "Osona",
        "lat": 41.886,
        "lng": 2.254,
        "specialty": "Esmorzar al mercat de Vic amb embotits d'Osona i pa de pagès",
        "confidence": "recommended"
      },
      "route_type": "circular",
      "best_season": [
        "primavera",
        "estiu",
        "tardor"
      ],
      "tags": [
        "plana",
        "mercat",
        "carreteres-secundàries",
        "tranquil"
      ],
      "google_maps_url": "https://www.google.com/maps/dir/41.725,1.826/41.825,2.05/41.886,2.254/41.847,2.223/41.733,2.115/41.812,2.098/41.75,1.95/41.725,1.826",
      "waypoints": [
        {
          "name": "Manresa",
          "lat": 41.725,
          "lng": 1.826,
          "type": "start",
          "road": "C-25"
        },
        {
          "name": "Interchange C-25/C-17",
          "lat": 41.825,
          "lng": 2.05,
          "type": "waypoint",
          "road": "C-25"
        },
        {
          "name": "Vic",
          "lat": 41.886,
          "lng": 2.254,
          "type": "esmorzar",
          "road": "C-17"
        },
        {
          "name": "Tona",
          "lat": 41.847,
          "lng": 2.223,
          "type": "waypoint",
          "road": "C-17"
        },
        {
          "name": "Intersection BV-1245/B-124",
          "lat": 41.733,
          "lng": 2.115,
          "type": "waypoint",
          "road": "BV-1245"
        },
        {
          "name": "Moià",
          "lat": 41.812,
          "lng": 2.098,
          "type": "waypoint",
          "road": "B-124"
        },
        {
          "name": "Intersection B-124/BV-4316",
          "lat": 41.75,
          "lng": 1.95,
          "type": "waypoint",
          "road": "B-124"
        },
        {
          "name": "Manresa",
          "lat": 41.725,
          "lng": 1.826,
          "type": "end",
          "road": "BV-4316"
        }
      ],
      "waypoints_source": "openai_verified",
      "verification": {
        "gpt_distance_km": 170,
        "gpt_duration_hours": 4.2,
        "distance_diff_pct": 0.03,
        "duration_diff_pct": 0.05,
        "plausible": true,
        "notes": "The route is plausible and follows the specified roads. The estimated distance and duration are slightly adjusted based on actual road conditions and speed limits."
      }
    },
    {
      "id": "ruta-008",
      "number": 8,
      "name": "Els Rasos de Peguera i la Serra de Picancel",
      "slug": "rasos-peguera-serra-picancel",
      "category": "pro",
      "difficulty": 5,
      "starting_hub": "Manresa / Bages",
      "starting_point": {
        "name": "Manresa",
        "comarca": "Bages",
        "lat": 41.725,
        "lng": 1.826
      },
      "comarca_principal": "Berguedà",
      "summary": "La ruta més exigent des de Manresa: pujada per la C-16 fins a Berga, desviació als Rasos de Peguera per la BV-4235 amb quilòmetres de revolts tancats entre pins, i tornada per Castellar de n'Hug i la serra de Picancel. Carreteres de muntanya amb asfalt variable que demanen concentració total.",
      "total_distance_km": 230,
      "estimated_duration_hours": 5,
      "riding_time_hours": 4,
      "elevation_gain_m": 3200,
      "elevation_max_m": 2050,
      "roads_main": [
        "C-16",
        "BV-4235",
        "BV-4024",
        "B-402",
        "C-26"
      ],
      "esmorzar": {
        "town": "Castellar de n'Hug",
        "comarca": "Berguedà",
        "lat": 42.268,
        "lng": 2.024,
        "specialty": "Esmorzar de muntanya amb trumfes i botifarra de Castellar de n'Hug",
        "confidence": "recommended"
      },
      "route_type": "circular",
      "best_season": [
        "estiu",
        "tardor"
      ],
      "tags": [
        "alta-muntanya",
        "corbes-tancades",
        "exigent",
        "bosc",
        "vistes"
      ],
      "google_maps_url": "https://www.google.com/maps/dir/41.725,1.826/42.104,1.846/42.052,1.88/42.238,1.97/42.268,2.024/42.307,2.053/42.192,2.024/42.145,1.987/41.725,1.826",
      "waypoints": [
        {
          "name": "Manresa",
          "lat": 41.725,
          "lng": 1.826,
          "type": "start",
          "road": "C-16"
        },
        {
          "name": "Berga",
          "lat": 42.104,
          "lng": 1.846,
          "type": "waypoint",
          "road": "C-16"
        },
        {
          "name": "Gironella",
          "lat": 42.052,
          "lng": 1.88,
          "type": "waypoint",
          "road": "C-16"
        },
        {
          "name": "La Pobla de Lillet",
          "lat": 42.238,
          "lng": 1.97,
          "type": "waypoint",
          "road": "BV-4024"
        },
        {
          "name": "Castellar de n'Hug",
          "lat": 42.268,
          "lng": 2.024,
          "type": "esmorzar",
          "road": "BV-4024"
        },
        {
          "name": "Coll de la Creueta",
          "lat": 42.307,
          "lng": 2.053,
          "type": "summit",
          "road": "BV-4024"
        },
        {
          "name": "Sant Jaume de Frontanyà",
          "lat": 42.192,
          "lng": 2.024,
          "type": "waypoint",
          "road": "B-402"
        },
        {
          "name": "Borredà",
          "lat": 42.145,
          "lng": 1.987,
          "type": "waypoint",
          "road": "C-26"
        },
        {
          "name": "Manresa",
          "lat": 41.725,
          "lng": 1.826,
          "type": "end",
          "road": "C-16"
        }
      ],
      "waypoints_source": "openai_verified",
      "verification": {
        "gpt_distance_km": 210,
        "gpt_duration_hours": 4.5,
        "distance_diff_pct": 0.09,
        "duration_diff_pct": 0.1,
        "plausible": true,
        "notes": "The route is plausible and follows the specified roads closely. The estimated distance is slightly less than claimed, but the duration aligns well with typical travel times for this type of terrain."
      }
    },
    {
      "id": "ruta-009",
      "number": 9,
      "name": "Navarcles, Talamanca i el Congost de la Riera",
      "slug": "navarcles-talamanca-congost",
      "category": "pro",
      "difficulty": 2,
      "starting_hub": "Manresa / Bages",
      "starting_point": {
        "name": "Manresa",
        "comarca": "Bages",
        "lat": 41.725,
        "lng": 1.826
      },
      "comarca_principal": "Bages",
      "summary": "Una ruta fluida que connecta els pobles del Bages per carreteres amb poc trànsit. Navarcles, Talamanca, Mura i Pont de Vilomara per la BV-1221 i BV-1229. Paisatges de conglomerats rocosos, rieres amagades i una sensació constant de descoberta a pocs quilòmetres de Manresa.",
      "total_distance_km": 125,
      "estimated_duration_hours": 3,
      "riding_time_hours": 2.5,
      "elevation_gain_m": 1200,
      "elevation_max_m": 650,
      "roads_main": [
        "BV-1221",
        "BV-1229",
        "B-124",
        "BP-1101",
        "BV-1245"
      ],
      "esmorzar": {
        "town": "Mura",
        "comarca": "Bages",
        "lat": 41.695,
        "lng": 1.974,
        "specialty": "Entrepà de pernil amb tomàquet i oli d'oliva del Bages",
        "confidence": "recommended"
      },
      "route_type": "circular",
      "best_season": [
        "primavera",
        "tardor",
        "hivern"
      ],
      "tags": [
        "pobles",
        "natura",
        "tranquil",
        "conglomerats"
      ],
      "google_maps_url": "https://www.google.com/maps/dir/41.725,1.826/41.752,1.899/41.724,1.977/41.695,1.974/41.683,2.04/41.727,2.08/41.811,2.098/41.833,1.751/41.725,1.826",
      "waypoints": [
        {
          "name": "Manresa",
          "lat": 41.725,
          "lng": 1.826,
          "type": "start",
          "road": "BV-1221"
        },
        {
          "name": "Navarcles",
          "lat": 41.752,
          "lng": 1.899,
          "type": "waypoint",
          "road": "BV-1221"
        },
        {
          "name": "Talamanca",
          "lat": 41.724,
          "lng": 1.977,
          "type": "waypoint",
          "road": "BV-1221"
        },
        {
          "name": "Mura",
          "lat": 41.695,
          "lng": 1.974,
          "type": "esmorzar",
          "road": "BV-1229"
        },
        {
          "name": "Sant Llorenç Savall",
          "lat": 41.683,
          "lng": 2.04,
          "type": "waypoint",
          "road": "B-124"
        },
        {
          "name": "Granera",
          "lat": 41.727,
          "lng": 2.08,
          "type": "waypoint",
          "road": "BP-1101"
        },
        {
          "name": "Moià",
          "lat": 41.811,
          "lng": 2.098,
          "type": "waypoint",
          "road": "BV-1245"
        },
        {
          "name": "Súria",
          "lat": 41.833,
          "lng": 1.751,
          "type": "waypoint",
          "road": "BV-1245"
        },
        {
          "name": "Manresa",
          "lat": 41.725,
          "lng": 1.826,
          "type": "end",
          "road": "BV-1221"
        }
      ],
      "waypoints_source": "openai_verified",
      "verification": {
        "gpt_distance_km": 130,
        "gpt_duration_hours": 3.5,
        "distance_diff_pct": 0.04,
        "duration_diff_pct": 0.17,
        "plausible": true,
        "notes": "The route is plausible with a slight increase in estimated distance and duration due to the winding nature of the roads and potential traffic conditions."
      }
    },
    {
      "id": "ruta-010",
      "number": 10,
      "name": "La Segarra i els Camps de Cereals",
      "slug": "segarra-camps-cereals",
      "category": "pro",
      "difficulty": 2,
      "starting_hub": "Manresa / Bages",
      "starting_point": {
        "name": "Manresa",
        "comarca": "Bages",
        "lat": 41.725,
        "lng": 1.826
      },
      "comarca_principal": "Segarra",
      "summary": "Ruta cap a ponent per la C-25 fins a Cervera, travessant l'altiplà de la Segarra entre camps de cereals infinits. Carreteres rectes que es combinen amb petits revolts entre pobles medievals com Torà i Biosca. Un paisatge àrid i solitari que recorda les grans planures europees.",
      "total_distance_km": 185,
      "estimated_duration_hours": 4,
      "riding_time_hours": 3.5,
      "elevation_gain_m": 1100,
      "elevation_max_m": 780,
      "roads_main": [
        "C-25",
        "L-311",
        "C-1412a",
        "LV-3003",
        "C-55"
      ],
      "esmorzar": {
        "town": "Cervera",
        "comarca": "Segarra",
        "lat": 41.67,
        "lng": 1.272,
        "specialty": "Esmorzar de forquilla amb cargols a la llauna i pa amb tomàquet",
        "confidence": "recommended"
      },
      "route_type": "circular",
      "best_season": [
        "primavera",
        "tardor"
      ],
      "tags": [
        "altiplà",
        "medieval",
        "vent",
        "paisatge-obert"
      ],
      "google_maps_url": "https://www.google.com/maps/dir/41.725,1.826/41.71,1.515/41.827,1.394/41.67,1.272/41.683,1.384/41.914,1.682/41.798,1.785/41.725,1.826",
      "waypoints": [
        {
          "name": "Manresa",
          "lat": 41.725,
          "lng": 1.826,
          "type": "start",
          "road": "C-25"
        },
        {
          "name": "Interchange C-25/L-311",
          "lat": 41.71,
          "lng": 1.515,
          "type": "waypoint",
          "road": "C-25"
        },
        {
          "name": "Torà",
          "lat": 41.827,
          "lng": 1.394,
          "type": "waypoint",
          "road": "L-311"
        },
        {
          "name": "Cervera",
          "lat": 41.67,
          "lng": 1.272,
          "type": "esmorzar",
          "road": "C-1412a"
        },
        {
          "name": "Sant Ramon",
          "lat": 41.683,
          "lng": 1.384,
          "type": "waypoint",
          "road": "LV-3003"
        },
        {
          "name": "Cardona",
          "lat": 41.914,
          "lng": 1.682,
          "type": "waypoint",
          "road": "C-55"
        },
        {
          "name": "Interchange C-55/C-25",
          "lat": 41.798,
          "lng": 1.785,
          "type": "waypoint",
          "road": "C-55"
        },
        {
          "name": "Manresa",
          "lat": 41.725,
          "lng": 1.826,
          "type": "end",
          "road": "C-55"
        }
      ],
      "waypoints_source": "openai_verified",
      "verification": {
        "gpt_distance_km": 190,
        "gpt_duration_hours": 4.2,
        "distance_diff_pct": 0.03,
        "duration_diff_pct": 0.05,
        "plausible": true,
        "notes": "The route follows the specified roads closely and the estimated distance and duration are slightly higher due to road conditions and typical traffic."
      }
    },
    {
      "id": "ruta-016",
      "number": 16,
      "name": "El Montseny Gran: Turó de l'Home",
      "slug": "montseny-gran-turo-home",
      "category": "pro",
      "difficulty": 4,
      "starting_hub": "Barcelona / Vallès",
      "starting_point": {
        "name": "Cerdanyola del Vallès",
        "comarca": "Vallès Occidental",
        "lat": 41.549,
        "lng": 2.107
      },
      "comarca_principal": "Vallès Oriental",
      "summary": "La clàssica del Montseny: pujada per la BV-5301 fins a Santa Fe, enllaç amb la BV-5114 cap al Turó de l'Home a 1.706 m, i baixada per Viladrau. Corbes encadenades entre fagedes centenàries, boira matinal i asfalt que convida a inclinar-se. Una ruta que tot motociclista ha de fer.",
      "total_distance_km": 180,
      "estimated_duration_hours": 4.5,
      "riding_time_hours": 3.5,
      "elevation_gain_m": 2400,
      "elevation_max_m": 1706,
      "roads_main": [
        "C-33",
        "C-17",
        "BV-5301",
        "BV-5114",
        "BV-5201",
        "GI-543"
      ],
      "esmorzar": {
        "town": "Viladrau",
        "comarca": "Osona",
        "lat": 41.85,
        "lng": 2.384,
        "specialty": "Esmorzar de forquilla amb botifarra d'ou i bolets del Montseny",
        "confidence": "recommended"
      },
      "route_type": "circular",
      "best_season": [
        "primavera",
        "estiu",
        "tardor"
      ],
      "tags": [
        "muntanya",
        "corbes",
        "fageda",
        "boira",
        "clàssica"
      ],
      "waypoints": [
        {
          "name": "Cerdanyola del Vallès (sortida)",
          "lat": 41.549,
          "lng": 2.107,
          "type": "start"
        },
        {
          "name": "Sant Celoni",
          "lat": 41.69,
          "lng": 2.49,
          "type": "waypoint"
        },
        {
          "name": "Santa Fe del Montseny",
          "lat": 41.776,
          "lng": 2.449,
          "type": "viewpoint"
        },
        {
          "name": "Turó de l'Home (1.706 m)",
          "lat": 41.777,
          "lng": 2.439,
          "type": "summit"
        },
        {
          "name": "Font de Passavets",
          "lat": 41.792,
          "lng": 2.415,
          "type": "viewpoint"
        },
        {
          "name": "Viladrau",
          "lat": 41.85,
          "lng": 2.384,
          "type": "esmorzar"
        },
        {
          "name": "Cerdanyola del Vallès (arribada)",
          "lat": 41.549,
          "lng": 2.107,
          "type": "end"
        }
      ],
      "google_maps_url": "https://www.google.com/maps/dir/41.549,2.107/41.69,2.49/41.776,2.449/41.777,2.439/41.792,2.415/41.85,2.384/41.549,2.107"
    },
    {
      "id": "ruta-017",
      "number": 17,
      "name": "La Costa del Garraf i els Cingles",
      "slug": "costa-garraf-cingles",
      "category": "pro",
      "difficulty": 3,
      "starting_hub": "Barcelona / Vallès",
      "starting_point": {
        "name": "Barcelona",
        "comarca": "Barcelonès",
        "lat": 41.389,
        "lng": 2.159
      },
      "comarca_principal": "Garraf",
      "summary": "Sortida de Barcelona per la C-32 fins a Sitges, pujada pel Parc del Garraf per la BV-2041 amb corbes tancades sobre penya-segats calcaris, i tornada per l'interior del Penedès. Mar, muntanya i vinyes en una sola ruta amb un esmorzar davant del Mediterrani.",
      "total_distance_km": 150,
      "estimated_duration_hours": 3.5,
      "riding_time_hours": 3,
      "elevation_gain_m": 1800,
      "elevation_max_m": 620,
      "roads_main": [
        "C-32",
        "C-31",
        "BV-2041",
        "BV-2115",
        "C-15",
        "B-20"
      ],
      "esmorzar": {
        "town": "Sitges",
        "comarca": "Garraf",
        "lat": 41.236,
        "lng": 1.812,
        "specialty": "Esmorzar de forquilla amb peix fregit i patates braves al passeig marítim",
        "confidence": "recommended"
      },
      "route_type": "circular",
      "best_season": [
        "primavera",
        "tardor",
        "hivern"
      ],
      "tags": [
        "costa",
        "mar",
        "penya-segats",
        "vinyes",
        "corbes"
      ],
      "google_maps_url": "https://www.google.com/maps/dir/41.389,2.159/41.236,1.812/41.263,1.757/41.299,1.748/41.346,1.697/41.425,1.787/41.416,2.016/41.389,2.159",
      "waypoints": [
        {
          "name": "Barcelona",
          "lat": 41.389,
          "lng": 2.159,
          "type": "start",
          "road": "C-32"
        },
        {
          "name": "Sitges",
          "lat": 41.236,
          "lng": 1.812,
          "type": "esmorzar",
          "road": "C-31"
        },
        {
          "name": "Sant Pere de Ribes",
          "lat": 41.263,
          "lng": 1.757,
          "type": "waypoint",
          "road": "BV-2041"
        },
        {
          "name": "Olivella",
          "lat": 41.299,
          "lng": 1.748,
          "type": "waypoint",
          "road": "BV-2115"
        },
        {
          "name": "Vilafranca del Penedès",
          "lat": 41.346,
          "lng": 1.697,
          "type": "waypoint",
          "road": "C-15"
        },
        {
          "name": "Sant Sadurní d'Anoia",
          "lat": 41.425,
          "lng": 1.787,
          "type": "waypoint",
          "road": "C-15"
        },
        {
          "name": "Molins de Rei",
          "lat": 41.416,
          "lng": 2.016,
          "type": "waypoint",
          "road": "B-20"
        },
        {
          "name": "Barcelona",
          "lat": 41.389,
          "lng": 2.159,
          "type": "end",
          "road": "B-20"
        }
      ],
      "waypoints_source": "openai_verified",
      "verification": {
        "gpt_distance_km": 160,
        "gpt_duration_hours": 3.5,
        "distance_diff_pct": 0.07,
        "duration_diff_pct": 0.0,
        "plausible": true,
        "notes": "The route follows the specified roads closely. The estimated distance and duration are slightly adjusted for realistic travel times and road conditions."
      }
    },
    {
      "id": "ruta-018",
      "number": 18,
      "name": "Penedès: Terra de Cava i Revolts",
      "slug": "penedes-terra-cava-revolts",
      "category": "pro",
      "difficulty": 2,
      "starting_hub": "Barcelona / Vallès",
      "starting_point": {
        "name": "Barcelona",
        "comarca": "Barcelonès",
        "lat": 41.389,
        "lng": 2.159
      },
      "comarca_principal": "Alt Penedès",
      "summary": "Travessia del Penedès per carreteres entre vinyes, cellers modernistes i pobles tranquils. De Barcelona cap a Vilafranca del Penedès per la C-15, volta per Sant Sadurní d'Anoia i tornada per l'Ordal. Ritme relaxat entre paisatges que canvien de color amb cada estació.",
      "total_distance_km": 155,
      "estimated_duration_hours": 4,
      "riding_time_hours": 3,
      "elevation_gain_m": 1000,
      "elevation_max_m": 540,
      "roads_main": [
        "C-15",
        "C-243a",
        "BV-2249",
        "BP-2121",
        "N-340"
      ],
      "esmorzar": {
        "town": "Vilafranca del Penedès",
        "comarca": "Alt Penedès",
        "lat": 41.346,
        "lng": 1.697,
        "specialty": "Esmorzar de forquilla amb xató i pa amb tomàquet al mercat",
        "confidence": "recommended"
      },
      "route_type": "circular",
      "best_season": [
        "primavera",
        "tardor"
      ],
      "tags": [
        "vinyes",
        "cava",
        "modernisme",
        "gastronomia"
      ],
      "google_maps_url": "https://www.google.com/maps/dir/41.389,2.159/41.425,1.784/41.346,1.697/41.456,1.701/41.472,1.666/41.472,1.529/41.315,1.661/41.389,2.159",
      "waypoints": [
        {
          "name": "Barcelona",
          "lat": 41.389,
          "lng": 2.159,
          "type": "start",
          "road": "N-340"
        },
        {
          "name": "Sant Sadurní d'Anoia",
          "lat": 41.425,
          "lng": 1.784,
          "type": "waypoint",
          "road": "C-243a"
        },
        {
          "name": "Vilafranca del Penedès",
          "lat": 41.346,
          "lng": 1.697,
          "type": "esmorzar",
          "road": "C-15"
        },
        {
          "name": "Sant Pere de Riudebitlles",
          "lat": 41.456,
          "lng": 1.701,
          "type": "waypoint",
          "road": "BV-2249"
        },
        {
          "name": "Sant Quintí de Mediona",
          "lat": 41.472,
          "lng": 1.666,
          "type": "waypoint",
          "road": "BP-2121"
        },
        {
          "name": "La Llacuna",
          "lat": 41.472,
          "lng": 1.529,
          "type": "waypoint",
          "road": "BP-2121"
        },
        {
          "name": "Santa Margarida i els Monjos",
          "lat": 41.315,
          "lng": 1.661,
          "type": "waypoint",
          "road": "N-340"
        },
        {
          "name": "Barcelona",
          "lat": 41.389,
          "lng": 2.159,
          "type": "end",
          "road": "N-340"
        }
      ],
      "waypoints_source": "openai_verified",
      "verification": {
        "gpt_distance_km": 160,
        "gpt_duration_hours": 4.2,
        "distance_diff_pct": 0.03,
        "duration_diff_pct": 0.05,
        "plausible": true,
        "notes": "The route follows the specified roads closely, with a slight increase in distance due to road conditions and detours. The estimated duration accounts for typical traffic and road conditions."
      }
    },
    {
      "id": "ruta-019",
      "number": 19,
      "name": "El Maresme i el Montnegre",
      "slug": "maresme-montnegre",
      "category": "pro",
      "difficulty": 3,
      "starting_hub": "Barcelona / Vallès",
      "starting_point": {
        "name": "Cerdanyola del Vallès",
        "comarca": "Vallès Occidental",
        "lat": 41.549,
        "lng": 2.107
      },
      "comarca_principal": "Maresme",
      "summary": "De Cerdanyola cap a la costa del Maresme per la C-33, seguint la línia del mar fins a Calella, i pujada al Parc del Montnegre per la BV-5128. Carreteres de muntanya litoral amb vistes al Mediterrani, baixada per Vallgorguina i tornada per l'AP-7. Combinació de mar i bosc que sorprèn.",
      "total_distance_km": 165,
      "estimated_duration_hours": 4,
      "riding_time_hours": 3,
      "elevation_gain_m": 1600,
      "elevation_max_m": 760,
      "roads_main": [
        "C-33",
        "C-32",
        "N-II",
        "BV-5128",
        "BV-5105"
      ],
      "esmorzar": {
        "town": "Calella",
        "comarca": "Maresme",
        "lat": 41.614,
        "lng": 2.654,
        "specialty": "Esmorzar de forquilla amb truita de gambes i pa amb tomàquet al port",
        "confidence": "recommended"
      },
      "route_type": "circular",
      "best_season": [
        "primavera",
        "estiu",
        "tardor"
      ],
      "tags": [
        "costa",
        "bosc",
        "mar",
        "muntanya-litoral"
      ],
      "google_maps_url": "https://www.google.com/maps/dir/41.549,2.107/41.496,2.188/41.45,2.247/41.54,2.444/41.614,2.654/41.623,2.621/41.636,2.573/41.686,2.49/41.584,2.324/41.549,2.107",
      "waypoints": [
        {
          "name": "Cerdanyola del Vallès",
          "lat": 41.549,
          "lng": 2.107,
          "type": "start",
          "road": "C-33"
        },
        {
          "name": "Montcada i Reixac",
          "lat": 41.496,
          "lng": 2.188,
          "type": "waypoint",
          "road": "C-33"
        },
        {
          "name": "Badalona",
          "lat": 41.45,
          "lng": 2.247,
          "type": "waypoint",
          "road": "C-32"
        },
        {
          "name": "Mataró",
          "lat": 41.54,
          "lng": 2.444,
          "type": "waypoint",
          "road": "N-II"
        },
        {
          "name": "Calella",
          "lat": 41.614,
          "lng": 2.654,
          "type": "esmorzar",
          "road": "N-II"
        },
        {
          "name": "Sant Cebrià de Vallalta",
          "lat": 41.623,
          "lng": 2.621,
          "type": "waypoint",
          "road": "BV-5128"
        },
        {
          "name": "Sant Iscle de Vallalta",
          "lat": 41.636,
          "lng": 2.573,
          "type": "waypoint",
          "road": "BV-5128"
        },
        {
          "name": "Sant Celoni",
          "lat": 41.686,
          "lng": 2.49,
          "type": "waypoint",
          "road": "BV-5105"
        },
        {
          "name": "La Roca del Vallès",
          "lat": 41.584,
          "lng": 2.324,
          "type": "waypoint",
          "road": "BV-5105"
        },
        {
          "name": "Cerdanyola del Vallès",
          "lat": 41.549,
          "lng": 2.107,
          "type": "end",
          "road": "C-33"
        }
      ],
      "waypoints_source": "openai_verified",
      "verification": {
        "gpt_distance_km": 175,
        "gpt_duration_hours": 4.2,
        "distance_diff_pct": 0.06,
        "duration_diff_pct": 0.05,
        "plausible": true,
        "notes": "The route follows scenic secondary roads and avoids highways, providing an enjoyable ride through El Maresme and El Montnegre regions."
      }
    },
    {
      "id": "ruta-020",
      "number": 20,
      "name": "Osona per la C-17: Vic i les Guilleries",
      "slug": "osona-c17-vic-guilleries",
      "category": "pro",
      "difficulty": 3,
      "starting_hub": "Barcelona / Vallès",
      "starting_point": {
        "name": "Cerdanyola del Vallès",
        "comarca": "Vallès Occidental",
        "lat": 41.549,
        "lng": 2.107
      },
      "comarca_principal": "Osona",
      "summary": "Pujada per la C-17 fins a Vic, volta per les Guilleries amb la seva vegetació exuberant i el pantà de Sau, i tornada per Centelles i Castellcir. Una ruta que combina la velocitat de la C-17 amb els revolts tancats de les carreteres de les Guilleries, on cada corba amaga un nou paisatge.",
      "total_distance_km": 200,
      "estimated_duration_hours": 4.5,
      "riding_time_hours": 3.5,
      "elevation_gain_m": 2000,
      "elevation_max_m": 920,
      "roads_main": [
        "C-17",
        "BV-5201",
        "BV-5213",
        "C-153",
        "BV-4608"
      ],
      "esmorzar": {
        "town": "Vic",
        "comarca": "Osona",
        "lat": 41.886,
        "lng": 2.254,
        "specialty": "Esmorzar al mercat central amb llonganissa de Vic i formatge d'Osona",
        "confidence": "recommended"
      },
      "route_type": "circular",
      "best_season": [
        "primavera",
        "estiu",
        "tardor"
      ],
      "tags": [
        "mercat",
        "pantà",
        "bosc",
        "guilleries",
        "corbes"
      ],
      "google_maps_url": "https://www.google.com/maps/dir/41.549,2.107/41.886,2.254/41.902,2.306/41.951,2.384/41.989,2.398/42.015,2.406/41.987,2.145/41.549,2.107",
      "waypoints": [
        {
          "name": "Cerdanyola del Vallès",
          "lat": 41.549,
          "lng": 2.107,
          "type": "start",
          "road": "C-17"
        },
        {
          "name": "Vic",
          "lat": 41.886,
          "lng": 2.254,
          "type": "esmorzar",
          "road": "C-17"
        },
        {
          "name": "Sant Julià de Vilatorta",
          "lat": 41.902,
          "lng": 2.306,
          "type": "waypoint",
          "road": "BV-5201"
        },
        {
          "name": "Vilanova de Sau",
          "lat": 41.951,
          "lng": 2.384,
          "type": "waypoint",
          "road": "BV-5213"
        },
        {
          "name": "Tavertet",
          "lat": 41.989,
          "lng": 2.398,
          "type": "summit",
          "road": "BV-5201"
        },
        {
          "name": "L'Esquirol",
          "lat": 42.015,
          "lng": 2.406,
          "type": "waypoint",
          "road": "C-153"
        },
        {
          "name": "Sant Bartomeu del Grau",
          "lat": 41.987,
          "lng": 2.145,
          "type": "waypoint",
          "road": "BV-4608"
        },
        {
          "name": "Cerdanyola del Vallès",
          "lat": 41.549,
          "lng": 2.107,
          "type": "end",
          "road": "C-17"
        }
      ],
      "waypoints_source": "openai_verified",
      "verification": {
        "gpt_distance_km": 200,
        "gpt_duration_hours": 4.5,
        "distance_diff_pct": 0.0,
        "duration_diff_pct": 0.0,
        "plausible": true,
        "notes": "The route is plausible with the given roads and waypoints. The estimated distance and duration align with the claimed values, considering typical road conditions and speed limits."
      }
    },
    {
      "id": "ruta-021",
      "number": 21,
      "name": "Delta del Llobregat al Cap de Creus del Garraf",
      "slug": "delta-llobregat-garraf",
      "category": "pro",
      "difficulty": 2,
      "starting_hub": "Barcelona / Vallès",
      "starting_point": {
        "name": "Barcelona",
        "comarca": "Barcelonès",
        "lat": 41.389,
        "lng": 2.159
      },
      "comarca_principal": "Baix Llobregat",
      "summary": "Sortida pel delta del Llobregat, travessant les zones humides i els camps de conreu fins a Gavà, pujada a Begues pel Parc del Garraf, i baixada sinuosa cap a Vilanova i la Geltrú. Retorn per l'autopista. Una ruta costanera amb trams sorprenentment tècnics a l'interior del Garraf.",
      "total_distance_km": 140,
      "estimated_duration_hours": 3.5,
      "riding_time_hours": 2.5,
      "elevation_gain_m": 1200,
      "elevation_max_m": 580,
      "roads_main": [
        "C-31",
        "BV-2041",
        "C-15",
        "C-32",
        "B-20"
      ],
      "esmorzar": {
        "town": "Vilanova i la Geltrú",
        "comarca": "Garraf",
        "lat": 41.224,
        "lng": 1.726,
        "specialty": "Esmorzar de mar amb sepia a la planxa i pa amb allioli",
        "confidence": "recommended"
      },
      "route_type": "circular",
      "best_season": [
        "primavera",
        "tardor",
        "hivern"
      ],
      "tags": [
        "costa",
        "delta",
        "parc-natural",
        "corbes"
      ],
      "google_maps_url": "https://www.google.com/maps/dir/41.389,2.159/41.277,1.97/41.224,1.726/41.346,1.697/41.235,1.811/41.256,1.774/41.359,2.099/41.389,2.159",
      "waypoints": [
        {
          "name": "Barcelona",
          "lat": 41.389,
          "lng": 2.159,
          "type": "start",
          "road": "C-31"
        },
        {
          "name": "Castelldefels",
          "lat": 41.277,
          "lng": 1.97,
          "type": "waypoint",
          "road": "C-31"
        },
        {
          "name": "Vilanova i la Geltrú",
          "lat": 41.224,
          "lng": 1.726,
          "type": "esmorzar",
          "road": "C-31"
        },
        {
          "name": "Vilafranca del Penedès",
          "lat": 41.346,
          "lng": 1.697,
          "type": "waypoint",
          "road": "C-15"
        },
        {
          "name": "Sitges",
          "lat": 41.235,
          "lng": 1.811,
          "type": "waypoint",
          "road": "C-32"
        },
        {
          "name": "Sant Pere de Ribes",
          "lat": 41.256,
          "lng": 1.774,
          "type": "waypoint",
          "road": "C-32"
        },
        {
          "name": "L'Hospitalet de Llobregat",
          "lat": 41.359,
          "lng": 2.099,
          "type": "waypoint",
          "road": "B-20"
        },
        {
          "name": "Barcelona",
          "lat": 41.389,
          "lng": 2.159,
          "type": "end",
          "road": "B-20"
        }
      ],
      "waypoints_source": "openai_verified",
      "verification": {
        "gpt_distance_km": 150,
        "gpt_duration_hours": 3.5,
        "distance_diff_pct": 0.07,
        "duration_diff_pct": 0.0,
        "plausible": true,
        "notes": "The route follows the specified roads closely, but the claimed distance of 140 km is slightly underestimated. The real distance is closer to 150 km."
      }
    },
    {
      "id": "ruta-022",
      "number": 22,
      "name": "Collserola i la Carretera de les Aigües",
      "slug": "collserola-carretera-aigues",
      "category": "pro",
      "difficulty": 2,
      "starting_hub": "Barcelona / Vallès",
      "starting_point": {
        "name": "Barcelona",
        "comarca": "Barcelonès",
        "lat": 41.389,
        "lng": 2.159
      },
      "comarca_principal": "Barcelonès",
      "summary": "Travessia completa del Parc de Collserola per carreteres asfaltades, des de la Rabassada fins a Molins de Rei, amb extensió cap a Sant Cugat i Cerdanyola. Revolts entre pins amb vistes a Barcelona d'un costat i al Vallès de l'altre. Tot a menys de 20 minuts del centre de la ciutat.",
      "total_distance_km": 120,
      "estimated_duration_hours": 3,
      "riding_time_hours": 2.5,
      "elevation_gain_m": 1400,
      "elevation_max_m": 512,
      "roads_main": [
        "BV-1468",
        "BP-1417",
        "BV-1462",
        "B-20",
        "C-16"
      ],
      "esmorzar": {
        "town": "Sant Cugat del Vallès",
        "comarca": "Vallès Occidental",
        "lat": 41.473,
        "lng": 2.086,
        "specialty": "Esmorzar de forquilla a Cal Cortés amb truita i embotits",
        "confidence": "recommended"
      },
      "route_type": "circular",
      "best_season": [
        "primavera",
        "tardor",
        "hivern"
      ],
      "tags": [
        "urbà",
        "bosc",
        "vistes-ciutat",
        "accessible"
      ],
      "google_maps_url": "https://www.google.com/maps/dir/41.389,2.159/41.414,2.109/41.428,2.088/41.473,2.086/41.482,2.069/41.491,2.138/41.498,2.188/41.389,2.159",
      "waypoints": [
        {
          "name": "Barcelona",
          "lat": 41.389,
          "lng": 2.159,
          "type": "start",
          "road": "BV-1468"
        },
        {
          "name": "Vallvidrera",
          "lat": 41.414,
          "lng": 2.109,
          "type": "waypoint",
          "road": "BV-1468"
        },
        {
          "name": "Collserola Park Entrance",
          "lat": 41.428,
          "lng": 2.088,
          "type": "waypoint",
          "road": "BP-1417"
        },
        {
          "name": "Sant Cugat del Vallès",
          "lat": 41.473,
          "lng": 2.086,
          "type": "esmorzar",
          "road": "BP-1417"
        },
        {
          "name": "Can Borrell",
          "lat": 41.482,
          "lng": 2.069,
          "type": "waypoint",
          "road": "BV-1462"
        },
        {
          "name": "Cerdanyola del Vallès",
          "lat": 41.491,
          "lng": 2.138,
          "type": "waypoint",
          "road": "B-20"
        },
        {
          "name": "Montcada i Reixac",
          "lat": 41.498,
          "lng": 2.188,
          "type": "waypoint",
          "road": "C-16"
        },
        {
          "name": "Barcelona",
          "lat": 41.389,
          "lng": 2.159,
          "type": "end",
          "road": "C-16"
        }
      ],
      "waypoints_source": "openai_verified",
      "verification": {
        "gpt_distance_km": 65,
        "gpt_duration_hours": 2,
        "distance_diff_pct": 0.46,
        "duration_diff_pct": 0.33,
        "plausible": true,
        "notes": "The actual route is shorter than claimed, covering approximately 65 km. The duration is around 2 hours due to the winding nature of the roads in Collserola."
      }
    },
    {
      "id": "ruta-023",
      "number": 23,
      "name": "El Vallès Oriental: Cingles de Bertí",
      "slug": "valles-oriental-cingles-berti",
      "category": "pro",
      "difficulty": 3,
      "starting_hub": "Barcelona / Vallès",
      "starting_point": {
        "name": "Cerdanyola del Vallès",
        "comarca": "Vallès Occidental",
        "lat": 41.549,
        "lng": 2.107
      },
      "comarca_principal": "Vallès Oriental",
      "summary": "De Cerdanyola cap a Granollers i pujada als Cingles de Bertí, una espectacular barrera rocosa amb vistes aèries sobre el Vallès. Carreteres de muntanya per Sant Quirze Safaja i Castellcir amb asfalt excel·lent i un ambient de total aïllament a pocs quilòmetres de la civilització.",
      "total_distance_km": 145,
      "estimated_duration_hours": 3.5,
      "riding_time_hours": 3,
      "elevation_gain_m": 1800,
      "elevation_max_m": 860,
      "roads_main": [
        "C-33",
        "C-17",
        "BV-1248",
        "BV-1245",
        "B-124"
      ],
      "esmorzar": {
        "town": "El Brull",
        "comarca": "Osona",
        "lat": 41.837,
        "lng": 2.305,
        "specialty": "Esmorzar pagès amb truita de bolets i pa de Sant Quirze",
        "confidence": "recommended"
      },
      "route_type": "circular",
      "best_season": [
        "primavera",
        "estiu",
        "tardor"
      ],
      "tags": [
        "cingles",
        "vistes-aèries",
        "corbes",
        "bosc"
      ],
      "google_maps_url": "https://www.google.com/maps/dir/41.549,2.107/41.574,2.233/41.747,2.285/41.837,2.305/41.683,2.223/41.633,2.164/41.549,2.107",
      "waypoints": [
        {
          "name": "Cerdanyola del Vallès",
          "lat": 41.549,
          "lng": 2.107,
          "type": "start",
          "road": "C-33"
        },
        {
          "name": "Parets del Vallès",
          "lat": 41.574,
          "lng": 2.233,
          "type": "waypoint",
          "road": "C-17"
        },
        {
          "name": "Tagamanent",
          "lat": 41.747,
          "lng": 2.285,
          "type": "waypoint",
          "road": "C-17"
        },
        {
          "name": "El Brull",
          "lat": 41.837,
          "lng": 2.305,
          "type": "esmorzar",
          "road": "BV-1248"
        },
        {
          "name": "Sant Miquel del Fai",
          "lat": 41.683,
          "lng": 2.223,
          "type": "waypoint",
          "road": "BV-1245"
        },
        {
          "name": "Caldes de Montbui",
          "lat": 41.633,
          "lng": 2.164,
          "type": "waypoint",
          "road": "B-124"
        },
        {
          "name": "Cerdanyola del Vallès",
          "lat": 41.549,
          "lng": 2.107,
          "type": "end",
          "road": "B-124"
        }
      ],
      "waypoints_source": "openai_verified",
      "verification": {
        "gpt_distance_km": 155,
        "gpt_duration_hours": 3.8,
        "distance_diff_pct": 0.07,
        "duration_diff_pct": 0.09,
        "plausible": true,
        "notes": "The route follows the specified roads closely with minor deviations for scenic detours. The estimated distance and duration are slightly higher due to road conditions and traffic."
      }
    },
    {
      "id": "ruta-024",
      "number": 24,
      "name": "Sant Llorenç Savall i el Pre-Pirineu Proper",
      "slug": "sant-llorenc-savall-pre-pirineu",
      "category": "pro",
      "difficulty": 3,
      "starting_hub": "Barcelona / Vallès",
      "starting_point": {
        "name": "Cerdanyola del Vallès",
        "comarca": "Vallès Occidental",
        "lat": 41.549,
        "lng": 2.107
      },
      "comarca_principal": "Vallès Occidental",
      "summary": "Ruta que connecta el Vallès amb el pre-Pirineu proper, passant per Sant Llorenç Savall, Castellterçol i Moià. Carreteres que guanyen alçada progressivament, amb vegetació que canvia dels alzinars mediterranis als boscos de pi roig. Tornada pel Congost amb un tram ràpid per la C-17.",
      "total_distance_km": 160,
      "estimated_duration_hours": 4,
      "riding_time_hours": 3,
      "elevation_gain_m": 1900,
      "elevation_max_m": 900,
      "roads_main": [
        "C-58",
        "BV-1221",
        "B-124",
        "BV-1245",
        "C-17",
        "C-33"
      ],
      "esmorzar": {
        "town": "Castellterçol",
        "comarca": "Moianès",
        "lat": 41.756,
        "lng": 2.12,
        "specialty": "Esmorzar de forquilla amb vedella de Castellterçol i patates a la brasa",
        "confidence": "recommended"
      },
      "route_type": "circular",
      "best_season": [
        "primavera",
        "estiu",
        "tardor"
      ],
      "tags": [
        "pre-pirineu",
        "bosc",
        "progressiu",
        "carreteres-secundàries"
      ],
      "google_maps_url": "https://www.google.com/maps/dir/41.549,2.107/41.563,2.008/41.683,2.041/41.756,2.12/41.812,2.098/41.93,2.254/41.608,2.288/41.549,2.107",
      "waypoints": [
        {
          "name": "Cerdanyola del Vallès",
          "lat": 41.549,
          "lng": 2.107,
          "type": "start",
          "road": "C-58"
        },
        {
          "name": "Terrassa",
          "lat": 41.563,
          "lng": 2.008,
          "type": "waypoint",
          "road": "C-58"
        },
        {
          "name": "Sant Llorenç Savall",
          "lat": 41.683,
          "lng": 2.041,
          "type": "waypoint",
          "road": "BV-1221"
        },
        {
          "name": "Castellterçol",
          "lat": 41.756,
          "lng": 2.12,
          "type": "esmorzar",
          "road": "B-124"
        },
        {
          "name": "Moià",
          "lat": 41.812,
          "lng": 2.098,
          "type": "waypoint",
          "road": "BV-1245"
        },
        {
          "name": "Vic",
          "lat": 41.93,
          "lng": 2.254,
          "type": "waypoint",
          "road": "C-17"
        },
        {
          "name": "Granollers",
          "lat": 41.608,
          "lng": 2.288,
          "type": "waypoint",
          "road": "C-33"
        },
        {
          "name": "Cerdanyola del Vallès",
          "lat": 41.549,
          "lng": 2.107,
          "type": "end",
          "road": "C-58"
        }
      ],
      "waypoints_source": "openai_verified",
      "verification": {
        "gpt_distance_km": 175,
        "gpt_duration_hours": 4,
        "distance_diff_pct": 0.09,
        "duration_diff_pct": 0.0,
        "plausible": true,
        "notes": "The route covers a scenic path through the Pre-Pyrenees with a slightly longer distance than claimed, but within the expected duration."
      }
    },
    {
      "id": "ruta-025",
      "number": 25,
      "name": "La Volta al Tibidabo",
      "slug": "volta-tibidabo",
      "category": "pro",
      "difficulty": 2,
      "starting_hub": "Barcelona / Vallès",
      "starting_point": {
        "name": "Barcelona",
        "comarca": "Barcelonès",
        "lat": 41.389,
        "lng": 2.159
      },
      "comarca_principal": "Barcelonès",
      "summary": "Pujada al Tibidabo per la carretera de Vallvidrera, travessia de Collserola fins a la Floresta, baixada cap a Molins de Rei i remuntada per Sant Feliu i la Ronda de Dalt. Combinació urbana i forestal amb vistes panoràmiques de tota la ciutat i el mar al fons. Ruta ràpida i efectiva.",
      "total_distance_km": 125,
      "estimated_duration_hours": 3,
      "riding_time_hours": 2.5,
      "elevation_gain_m": 1300,
      "elevation_max_m": 512,
      "roads_main": [
        "BV-1468",
        "BP-1417",
        "B-23",
        "B-20",
        "C-16"
      ],
      "esmorzar": {
        "town": "Vallvidrera",
        "comarca": "Barcelonès",
        "lat": 41.417,
        "lng": 2.107,
        "specialty": "Entrepà de pernil ibèric amb tomàquet en un bar de Vallvidrera",
        "confidence": "recommended"
      },
      "route_type": "circular",
      "best_season": [
        "primavera",
        "tardor",
        "hivern"
      ],
      "tags": [
        "urbà",
        "vistes",
        "collserola",
        "accessible"
      ],
      "google_maps_url": "https://www.google.com/maps/dir/41.389,2.159/41.417,2.107/41.421,2.097/41.472,2.086/41.416,2.019/41.375,2.088/41.493,2.189/41.389,2.159",
      "waypoints": [
        {
          "name": "Barcelona",
          "lat": 41.389,
          "lng": 2.159,
          "type": "start",
          "road": "BV-1468"
        },
        {
          "name": "Vallvidrera",
          "lat": 41.417,
          "lng": 2.107,
          "type": "esmorzar",
          "road": "BV-1468"
        },
        {
          "name": "Collserola Park Entrance",
          "lat": 41.421,
          "lng": 2.097,
          "type": "waypoint",
          "road": "BP-1417"
        },
        {
          "name": "Sant Cugat del Vallès",
          "lat": 41.472,
          "lng": 2.086,
          "type": "waypoint",
          "road": "BP-1417"
        },
        {
          "name": "Molins de Rei",
          "lat": 41.416,
          "lng": 2.019,
          "type": "waypoint",
          "road": "B-23"
        },
        {
          "name": "Esplugues de Llobregat",
          "lat": 41.375,
          "lng": 2.088,
          "type": "waypoint",
          "road": "B-20"
        },
        {
          "name": "Montcada i Reixac",
          "lat": 41.493,
          "lng": 2.189,
          "type": "waypoint",
          "road": "C-16"
        },
        {
          "name": "Barcelona",
          "lat": 41.389,
          "lng": 2.159,
          "type": "end",
          "road": "C-16"
        }
      ],
      "waypoints_source": "openai_verified",
      "verification": {
        "gpt_distance_km": 80,
        "gpt_duration_hours": 2,
        "distance_diff_pct": 0.36,
        "duration_diff_pct": 0.33,
        "plausible": false,
        "notes": "The claimed distance and duration seem exaggerated for the roads specified. The real route is shorter and quicker."
      }
    },
    {
      "id": "ruta-032",
      "number": 32,
      "name": "Sant Llorenç del Munt: La Mola per Dins",
      "slug": "sant-llorenc-munt-mola",
      "category": "pro",
      "difficulty": 4,
      "starting_hub": "Sabadell / Terrassa",
      "starting_point": {
        "name": "Terrassa",
        "comarca": "Vallès Occidental",
        "lat": 41.563,
        "lng": 2.008
      },
      "comarca_principal": "Vallès Occidental",
      "summary": "Volta completa al massís de Sant Llorenç del Munt sortint de Terrassa. Pujada per Matadepera amb revolts tancats entre conglomerats rocosos, pas per Mura i el Pont de Vilomara, i tornada per Vacarisses. Paisatge de roca i bosc amb trams tècnics que demanen precisió.",
      "total_distance_km": 130,
      "estimated_duration_hours": 3.5,
      "riding_time_hours": 3,
      "elevation_gain_m": 2000,
      "elevation_max_m": 880,
      "roads_main": [
        "BV-1221",
        "BV-1229",
        "B-124",
        "BV-1245",
        "C-58"
      ],
      "esmorzar": {
        "town": "Matadepera",
        "comarca": "Vallès Occidental",
        "lat": 41.598,
        "lng": 2.023,
        "specialty": "Esmorzar de forquilla a La Masia de Matadepera amb botifarra i ous ferrats",
        "confidence": "recommended"
      },
      "route_type": "circular",
      "best_season": [
        "primavera",
        "tardor"
      ],
      "tags": [
        "conglomerats",
        "corbes-tancades",
        "parc-natural",
        "tècnic"
      ],
      "google_maps_url": "https://www.google.com/maps/dir/41.563,2.008/41.598,2.023/41.664,1.976/41.683,1.977/41.732,1.927/41.694,2.061/41.616,2.087/41.548,2.107/41.563,2.008",
      "waypoints": [
        {
          "name": "Terrassa",
          "lat": 41.563,
          "lng": 2.008,
          "type": "start",
          "road": "BV-1221"
        },
        {
          "name": "Matadepera",
          "lat": 41.598,
          "lng": 2.023,
          "type": "esmorzar",
          "road": "BV-1221"
        },
        {
          "name": "Coll d'Estenalles",
          "lat": 41.664,
          "lng": 1.976,
          "type": "summit",
          "road": "BV-1221"
        },
        {
          "name": "Mura",
          "lat": 41.683,
          "lng": 1.977,
          "type": "waypoint",
          "road": "BV-1229"
        },
        {
          "name": "Talamanca",
          "lat": 41.732,
          "lng": 1.927,
          "type": "waypoint",
          "road": "B-124"
        },
        {
          "name": "Sant Llorenç Savall",
          "lat": 41.694,
          "lng": 2.061,
          "type": "waypoint",
          "road": "BV-1245"
        },
        {
          "name": "Castellar del Vallès",
          "lat": 41.616,
          "lng": 2.087,
          "type": "waypoint",
          "road": "B-124"
        },
        {
          "name": "Sabadell",
          "lat": 41.548,
          "lng": 2.107,
          "type": "waypoint",
          "road": "C-58"
        },
        {
          "name": "Terrassa",
          "lat": 41.563,
          "lng": 2.008,
          "type": "end",
          "road": "C-58"
        }
      ],
      "waypoints_source": "openai_verified",
      "verification": {
        "gpt_distance_km": 140,
        "gpt_duration_hours": 3.5,
        "distance_diff_pct": 0.08,
        "duration_diff_pct": 0.0,
        "plausible": true,
        "notes": "The route follows the specified roads and includes scenic mountain passes. The claimed distance and duration are slightly underestimated; actual travel might be longer due to winding roads."
      }
    },
    {
      "id": "ruta-033",
      "number": 33,
      "name": "Terrassa - Montseny pel Moianès",
      "slug": "terrassa-montseny-moianes",
      "category": "pro",
      "difficulty": 4,
      "starting_hub": "Sabadell / Terrassa",
      "starting_point": {
        "name": "Terrassa",
        "comarca": "Vallès Occidental",
        "lat": 41.563,
        "lng": 2.008
      },
      "comarca_principal": "Osona",
      "summary": "Gran ruta que connecta Terrassa amb el Montseny passant pel Moianès. De Terrassa a Castellterçol per la B-124, pujada fins a Moià i baixada al Montseny per carreteres solitàries. Fagedes, pins i corbes inacabables amb un desnivell acumulat notable. Per a motociclistes amb experiència.",
      "total_distance_km": 220,
      "estimated_duration_hours": 5,
      "riding_time_hours": 4,
      "elevation_gain_m": 2800,
      "elevation_max_m": 1200,
      "roads_main": [
        "B-124",
        "BV-1245",
        "BV-5301",
        "BV-5114",
        "C-17",
        "C-58"
      ],
      "esmorzar": {
        "town": "Santa Fe del Montseny",
        "comarca": "Vallès Oriental",
        "lat": 41.776,
        "lng": 2.449,
        "specialty": "Esmorzar de muntanya amb botifarra del perol i patates al caliu al restaurant de Santa Fe",
        "confidence": "recommended"
      },
      "route_type": "circular",
      "best_season": [
        "estiu",
        "tardor"
      ],
      "tags": [
        "muntanya",
        "fageda",
        "llarga-distància",
        "corbes",
        "exigent"
      ],
      "google_maps_url": "https://www.google.com/maps/dir/41.563,2.008/41.616,2.086/41.684,2.042/41.812,2.098/41.783,2.358/41.776,2.449/41.686,2.491/41.608,2.288/41.548,2.107/41.563,2.008",
      "waypoints": [
        {
          "name": "Terrassa",
          "lat": 41.563,
          "lng": 2.008,
          "type": "start",
          "road": "B-124"
        },
        {
          "name": "Castellar del Vallès",
          "lat": 41.616,
          "lng": 2.086,
          "type": "waypoint",
          "road": "B-124"
        },
        {
          "name": "Sant Llorenç Savall",
          "lat": 41.684,
          "lng": 2.042,
          "type": "waypoint",
          "road": "BV-1245"
        },
        {
          "name": "Moià",
          "lat": 41.812,
          "lng": 2.098,
          "type": "waypoint",
          "road": "BV-5301"
        },
        {
          "name": "Collformic",
          "lat": 41.783,
          "lng": 2.358,
          "type": "summit",
          "road": "BV-5301"
        },
        {
          "name": "Santa Fe del Montseny",
          "lat": 41.776,
          "lng": 2.449,
          "type": "esmorzar",
          "road": "BV-5114"
        },
        {
          "name": "Sant Celoni",
          "lat": 41.686,
          "lng": 2.491,
          "type": "waypoint",
          "road": "C-17"
        },
        {
          "name": "Granollers",
          "lat": 41.608,
          "lng": 2.288,
          "type": "waypoint",
          "road": "C-17"
        },
        {
          "name": "Sabadell",
          "lat": 41.548,
          "lng": 2.107,
          "type": "waypoint",
          "road": "C-58"
        },
        {
          "name": "Terrassa",
          "lat": 41.563,
          "lng": 2.008,
          "type": "end",
          "road": "C-58"
        }
      ],
      "waypoints_source": "openai_verified",
      "verification": {
        "gpt_distance_km": 210,
        "gpt_duration_hours": 4.75,
        "distance_diff_pct": 0.05,
        "duration_diff_pct": 0.05,
        "plausible": true,
        "notes": "The route closely follows the specified roads and includes key waypoints. Distance and duration are slightly adjusted based on road conditions and speed limits."
      }
    },
    {
      "id": "ruta-034",
      "number": 34,
      "name": "Rellinars, Vacarisses i el Congost del Llobregat",
      "slug": "rellinars-vacarisses-congost",
      "category": "pro",
      "difficulty": 3,
      "starting_hub": "Sabadell / Terrassa",
      "starting_point": {
        "name": "Sabadell",
        "comarca": "Vallès Occidental",
        "lat": 41.543,
        "lng": 2.108
      },
      "comarca_principal": "Vallès Occidental",
      "summary": "Ruta que explora el sector occidental del Vallès, de Sabadell a Rellinars per carreteres estretes, baixada a Vacarisses pel congost del Llobregat i tornada per Olesa de Montserrat amb vistes a Montserrat. Trams tècnics amb revolts entre pins i un ambient de total aïllament.",
      "total_distance_km": 125,
      "estimated_duration_hours": 3,
      "riding_time_hours": 2.5,
      "elevation_gain_m": 1500,
      "elevation_max_m": 640,
      "roads_main": [
        "C-58",
        "BV-1229",
        "B-124",
        "BP-1101",
        "C-55"
      ],
      "esmorzar": {
        "town": "Olesa de Montserrat",
        "comarca": "Baix Llobregat",
        "lat": 41.545,
        "lng": 1.893,
        "specialty": "Esmorzar de forquilla amb ous estrellats i llonganissa a un bar de carretera",
        "confidence": "recommended"
      },
      "route_type": "circular",
      "best_season": [
        "primavera",
        "tardor",
        "hivern"
      ],
      "tags": [
        "congost",
        "carreteres-estretes",
        "montserrat",
        "bosc"
      ],
      "google_maps_url": "https://www.google.com/maps/dir/41.543,2.108/41.563,2.008/41.633,1.911/41.545,1.893/41.61,1.835/41.578,1.832/41.592,1.912/41.543,2.108",
      "waypoints": [
        {
          "name": "Sabadell",
          "lat": 41.543,
          "lng": 2.108,
          "type": "start",
          "road": "C-58"
        },
        {
          "name": "Terrassa",
          "lat": 41.563,
          "lng": 2.008,
          "type": "waypoint",
          "road": "C-58"
        },
        {
          "name": "Rellinars",
          "lat": 41.633,
          "lng": 1.911,
          "type": "waypoint",
          "road": "BV-1229"
        },
        {
          "name": "Olesa de Montserrat",
          "lat": 41.545,
          "lng": 1.893,
          "type": "esmorzar",
          "road": "C-55"
        },
        {
          "name": "Monistrol de Montserrat",
          "lat": 41.61,
          "lng": 1.835,
          "type": "waypoint",
          "road": "C-55"
        },
        {
          "name": "Collbató",
          "lat": 41.578,
          "lng": 1.832,
          "type": "waypoint",
          "road": "BP-1101"
        },
        {
          "name": "Vacarisses",
          "lat": 41.592,
          "lng": 1.912,
          "type": "waypoint",
          "road": "B-124"
        },
        {
          "name": "Sabadell",
          "lat": 41.543,
          "lng": 2.108,
          "type": "end",
          "road": "C-58"
        }
      ],
      "waypoints_source": "openai_verified",
      "verification": {
        "gpt_distance_km": 130,
        "gpt_duration_hours": 3.5,
        "distance_diff_pct": 0.04,
        "duration_diff_pct": 0.17,
        "plausible": true,
        "notes": "The route follows the specified roads closely, with a slight increase in estimated distance and duration due to real road conditions and traffic."
      }
    },
    {
      "id": "ruta-035",
      "number": 35,
      "name": "Castellar del Vallès i les Obagues",
      "slug": "castellar-valles-obagues",
      "category": "pro",
      "difficulty": 3,
      "starting_hub": "Sabadell / Terrassa",
      "starting_point": {
        "name": "Sabadell",
        "comarca": "Vallès Occidental",
        "lat": 41.543,
        "lng": 2.108
      },
      "comarca_principal": "Vallès Occidental",
      "summary": "Circuit pels voltants de Castellar del Vallès, pujant cap a Sentmenat i la serra de l'Obac per la BV-1248. Carreteres amb revolts generosos entre boscos d'alzina i pi blanc, amb parades possibles a masies i fonts. Tornada per Sant Llorenç Savall completant un circuit molt satisfactori.",
      "total_distance_km": 135,
      "estimated_duration_hours": 3.5,
      "riding_time_hours": 2.5,
      "elevation_gain_m": 1600,
      "elevation_max_m": 780,
      "roads_main": [
        "B-124",
        "BV-1248",
        "BV-1221",
        "C-58",
        "N-150"
      ],
      "esmorzar": {
        "town": "Castellar del Vallès",
        "comarca": "Vallès Occidental",
        "lat": 41.616,
        "lng": 2.083,
        "specialty": "Esmorzar a Can Gibert amb truita de patates i café de matí",
        "confidence": "recommended"
      },
      "route_type": "circular",
      "best_season": [
        "primavera",
        "tardor"
      ],
      "tags": [
        "bosc",
        "carreteres-secundàries",
        "masies",
        "tranquil"
      ],
      "google_maps_url": "https://www.google.com/maps/dir/41.543,2.108/41.616,2.083/41.686,2.062/41.682,1.977/41.684,1.931/41.563,2.008/41.496,2.157/41.543,2.108",
      "waypoints": [
        {
          "name": "Sabadell",
          "lat": 41.543,
          "lng": 2.108,
          "type": "start",
          "road": "N-150"
        },
        {
          "name": "Castellar del Vallès",
          "lat": 41.616,
          "lng": 2.083,
          "type": "esmorzar",
          "road": "B-124"
        },
        {
          "name": "Sant Llorenç Savall",
          "lat": 41.686,
          "lng": 2.062,
          "type": "waypoint",
          "road": "BV-1248"
        },
        {
          "name": "Coll d'Estenalles",
          "lat": 41.682,
          "lng": 1.977,
          "type": "summit",
          "road": "BV-1221"
        },
        {
          "name": "Mura",
          "lat": 41.684,
          "lng": 1.931,
          "type": "waypoint",
          "road": "BV-1221"
        },
        {
          "name": "Terrassa",
          "lat": 41.563,
          "lng": 2.008,
          "type": "waypoint",
          "road": "C-58"
        },
        {
          "name": "Ripollet",
          "lat": 41.496,
          "lng": 2.157,
          "type": "waypoint",
          "road": "N-150"
        },
        {
          "name": "Sabadell",
          "lat": 41.543,
          "lng": 2.108,
          "type": "end",
          "road": "N-150"
        }
      ],
      "waypoints_source": "openai_verified",
      "verification": {
        "gpt_distance_km": 140,
        "gpt_duration_hours": 3.5,
        "distance_diff_pct": 0.04,
        "duration_diff_pct": 0.0,
        "plausible": true,
        "notes": "The route follows the specified roads closely, with a slight adjustment in the estimated distance and duration to reflect actual road conditions and speeds."
      }
    },
    {
      "id": "ruta-036",
      "number": 36,
      "name": "Sabadell a Montserrat per l'Interior",
      "slug": "sabadell-montserrat-interior",
      "category": "pro",
      "difficulty": 3,
      "starting_hub": "Sabadell / Terrassa",
      "starting_point": {
        "name": "Sabadell",
        "comarca": "Vallès Occidental",
        "lat": 41.543,
        "lng": 2.108
      },
      "comarca_principal": "Bages",
      "summary": "De Sabadell a Montserrat per la ruta interior: Terrassa, Vacarisses i el Bruc fins al monestir, amb tornada per Monistrol i la C-55. Combinació de trams ràpids i revolts de muntanya amb la silueta de Montserrat com a fil conductor. Esmorzar amb vistes a la muntanya sagrada.",
      "total_distance_km": 140,
      "estimated_duration_hours": 3.5,
      "riding_time_hours": 3,
      "elevation_gain_m": 1800,
      "elevation_max_m": 720,
      "roads_main": [
        "C-58",
        "BV-1229",
        "BP-1103",
        "C-55",
        "B-124"
      ],
      "esmorzar": {
        "town": "Monistrol de Montserrat",
        "comarca": "Bages",
        "lat": 41.61,
        "lng": 1.84,
        "specialty": "Esmorzar al restaurant del monestir amb coca de recapte i embotits de la zona",
        "confidence": "recommended"
      },
      "route_type": "circular",
      "best_season": [
        "primavera",
        "tardor",
        "hivern"
      ],
      "tags": [
        "montserrat",
        "monestir",
        "revolts",
        "vistes"
      ],
      "google_maps_url": "https://www.google.com/maps/dir/41.543,2.108/41.563,2.008/41.563,1.957/41.543,1.894/41.61,1.84/41.66,1.872/41.65,1.866/41.543,2.108",
      "waypoints": [
        {
          "name": "Sabadell",
          "lat": 41.543,
          "lng": 2.108,
          "type": "start",
          "road": "C-58"
        },
        {
          "name": "Terrassa",
          "lat": 41.563,
          "lng": 2.008,
          "type": "waypoint",
          "road": "C-58"
        },
        {
          "name": "Viladecavalls",
          "lat": 41.563,
          "lng": 1.957,
          "type": "waypoint",
          "road": "BV-1229"
        },
        {
          "name": "Olesa de Montserrat",
          "lat": 41.543,
          "lng": 1.894,
          "type": "waypoint",
          "road": "BP-1103"
        },
        {
          "name": "Monistrol de Montserrat",
          "lat": 41.61,
          "lng": 1.84,
          "type": "esmorzar",
          "road": "C-55"
        },
        {
          "name": "Sant Vicenç de Castellet",
          "lat": 41.66,
          "lng": 1.872,
          "type": "waypoint",
          "road": "C-55"
        },
        {
          "name": "Castellbell i el Vilar",
          "lat": 41.65,
          "lng": 1.866,
          "type": "waypoint",
          "road": "B-124"
        },
        {
          "name": "Sabadell",
          "lat": 41.543,
          "lng": 2.108,
          "type": "end",
          "road": "B-124"
        }
      ],
      "waypoints_source": "openai_verified",
      "verification": {
        "gpt_distance_km": 150,
        "gpt_duration_hours": 3.5,
        "distance_diff_pct": 0.07,
        "duration_diff_pct": 0.0,
        "plausible": true,
        "notes": "The route follows scenic secondary roads and avoids highways. The estimated distance and duration are slightly adjusted for realistic travel times on these roads."
      }
    },
    {
      "id": "ruta-039",
      "number": 39,
      "name": "Les 365 Corbes de la Costa Brava",
      "slug": "les-365-corbes-de-la-costa-brava",
      "category": "pro",
      "difficulty": 4,
      "starting_hub": "Girona / Empordà",
      "starting_point": {
        "name": "Girona",
        "comarca": "Gironès",
        "lat": 41.983,
        "lng": 2.824
      },
      "comarca_principal": "La Selva",
      "summary": "La ruta mítica de la GI-682 entre Tossa de Mar i Sant Feliu de Guíxols, amb les seves llegendàries 365 corbes sobre penya-segats que cauen al mar. Un festí de revolts tècnics, vistes infinites al Mediterrani i parades en cales amagades.",
      "total_distance_km": 185,
      "estimated_duration_hours": 4.5,
      "riding_time_hours": 3.5,
      "elevation_gain_m": 1850,
      "elevation_max_m": 320,
      "roads_main": [
        "GI-682",
        "GI-664",
        "C-65",
        "C-63"
      ],
      "esmorzar": {
        "town": "Tossa de Mar",
        "comarca": "La Selva",
        "lat": 41.721,
        "lng": 2.934,
        "specialty": "Esmorzar de forquilla amb peix fresc i pa amb tomàquet davant del mar",
        "confidence": "recommended"
      },
      "route_type": "circular",
      "best_season": [
        "primavera",
        "estiu",
        "tardor"
      ],
      "tags": [
        "costa",
        "corbes",
        "icònica",
        "penya-segats"
      ],
      "waypoints": [
        {
          "name": "Girona (sortida)",
          "lat": 41.983,
          "lng": 2.824,
          "type": "start"
        },
        {
          "name": "Llagostera",
          "lat": 41.828,
          "lng": 2.893,
          "type": "waypoint"
        },
        {
          "name": "Tossa de Mar",
          "lat": 41.721,
          "lng": 2.934,
          "type": "esmorzar"
        },
        {
          "name": "Mirador de la GI-682",
          "lat": 41.753,
          "lng": 2.965,
          "type": "viewpoint"
        },
        {
          "name": "Cala Giverola",
          "lat": 41.744,
          "lng": 2.945,
          "type": "viewpoint"
        },
        {
          "name": "Sant Feliu de Guíxols",
          "lat": 41.784,
          "lng": 3.032,
          "type": "waypoint"
        },
        {
          "name": "Girona (arribada)",
          "lat": 41.983,
          "lng": 2.824,
          "type": "end"
        }
      ],
      "google_maps_url": "https://www.google.com/maps/dir/41.983,2.824/41.828,2.893/41.721,2.934/41.753,2.965/41.744,2.945/41.784,3.032/41.983,2.824"
    },
    {
      "id": "ruta-040",
      "number": 40,
      "name": "Cap de Creus i Cadaqués",
      "slug": "cap-de-creus-i-cadaques",
      "category": "pro",
      "difficulty": 4,
      "starting_hub": "Girona / Empordà",
      "starting_point": {
        "name": "Girona",
        "comarca": "Gironès",
        "lat": 41.983,
        "lng": 2.824
      },
      "comarca_principal": "Alt Empordà",
      "summary": "Travessa de l'Empordà fins al punt més oriental de la Península Ibèrica. Les carreteres serpentejen entre oliveres centenàries i vinyes fins a Cadaqués, el poble blanc que va inspirar Dalí. El descens cap al Cap de Creus és un laberint de corbes amb vistes al cap rocós batut pel vent.",
      "total_distance_km": 210,
      "estimated_duration_hours": 5,
      "riding_time_hours": 4,
      "elevation_gain_m": 1600,
      "elevation_max_m": 450,
      "roads_main": [
        "C-66",
        "GI-614",
        "GI-610",
        "N-II"
      ],
      "esmorzar": {
        "town": "Cadaqués",
        "comarca": "Alt Empordà",
        "lat": 42.289,
        "lng": 3.278,
        "specialty": "Esmorzar de forquilla amb anxoves de Cadaqués i pa de vidre",
        "confidence": "recommended"
      },
      "route_type": "circular",
      "best_season": [
        "primavera",
        "tardor"
      ],
      "tags": [
        "costa",
        "corbes",
        "cultura",
        "paisatge"
      ],
      "google_maps_url": "https://www.google.com/maps/dir/41.983,2.824/42.116,2.765/42.199,2.698/42.261,3.176/42.289,3.278/42.343,3.203/42.267,2.961/41.983,2.824",
      "waypoints": [
        {
          "name": "Girona",
          "lat": 41.983,
          "lng": 2.824,
          "type": "start",
          "road": "C-66"
        },
        {
          "name": "Banyoles",
          "lat": 42.116,
          "lng": 2.765,
          "type": "waypoint",
          "road": "C-66"
        },
        {
          "name": "Besalú",
          "lat": 42.199,
          "lng": 2.698,
          "type": "waypoint",
          "road": "C-66"
        },
        {
          "name": "Roses",
          "lat": 42.261,
          "lng": 3.176,
          "type": "waypoint",
          "road": "GI-614"
        },
        {
          "name": "Cadaqués",
          "lat": 42.289,
          "lng": 3.278,
          "type": "esmorzar",
          "road": "GI-614"
        },
        {
          "name": "Port de la Selva",
          "lat": 42.343,
          "lng": 3.203,
          "type": "waypoint",
          "road": "GI-610"
        },
        {
          "name": "Figueres",
          "lat": 42.267,
          "lng": 2.961,
          "type": "waypoint",
          "road": "N-II"
        },
        {
          "name": "Girona",
          "lat": 41.983,
          "lng": 2.824,
          "type": "end",
          "road": "N-II"
        }
      ],
      "waypoints_source": "openai_verified",
      "verification": {
        "gpt_distance_km": 210,
        "gpt_duration_hours": 5,
        "distance_diff_pct": 0.0,
        "duration_diff_pct": 0.0,
        "plausible": true,
        "notes": "The route is plausible and follows the specified roads. The estimated distance and duration match the claimed values closely, considering typical road conditions and speed limits."
      }
    },
    {
      "id": "ruta-041",
      "number": 41,
      "name": "Volcans de la Garrotxa",
      "slug": "volcans-de-la-garrotxa",
      "category": "pro",
      "difficulty": 3,
      "starting_hub": "Girona / Empordà",
      "starting_point": {
        "name": "Girona",
        "comarca": "Gironès",
        "lat": 41.983,
        "lng": 2.824
      },
      "comarca_principal": "La Garrotxa",
      "summary": "Ruta cap al cor volcànic de Catalunya, travessant fagedes i pobles medievals. Des de Besalú i el seu pont romànic fins a Santa Pau, passant per Olot i la seva espectacular zona volcànica. Carreteres sinuoses enmig d'un paisatge verd que sembla un altre país.",
      "total_distance_km": 175,
      "estimated_duration_hours": 4,
      "riding_time_hours": 3,
      "elevation_gain_m": 1400,
      "elevation_max_m": 680,
      "roads_main": [
        "C-66",
        "GI-524",
        "C-152",
        "C-63"
      ],
      "esmorzar": {
        "town": "Santa Pau",
        "comarca": "La Garrotxa",
        "lat": 42.145,
        "lng": 2.567,
        "specialty": "Fesols de Santa Pau amb botifarra i un glop de ratafía",
        "confidence": "verified"
      },
      "route_type": "circular",
      "best_season": [
        "primavera",
        "tardor"
      ],
      "tags": [
        "volcans",
        "natura",
        "medieval",
        "gastronomia"
      ],
      "google_maps_url": "https://www.google.com/maps/dir/41.983,2.824/42.116,2.765/42.2,2.698/42.145,2.567/42.182,2.488/42.097,2.435/41.953,2.635/41.983,2.824",
      "waypoints": [
        {
          "name": "Girona",
          "lat": 41.983,
          "lng": 2.824,
          "type": "start",
          "road": "C-66"
        },
        {
          "name": "Banyoles",
          "lat": 42.116,
          "lng": 2.765,
          "type": "waypoint",
          "road": "C-66"
        },
        {
          "name": "Besalú",
          "lat": 42.2,
          "lng": 2.698,
          "type": "waypoint",
          "road": "C-66"
        },
        {
          "name": "Santa Pau",
          "lat": 42.145,
          "lng": 2.567,
          "type": "esmorzar",
          "road": "GI-524"
        },
        {
          "name": "Olot",
          "lat": 42.182,
          "lng": 2.488,
          "type": "waypoint",
          "road": "C-152"
        },
        {
          "name": "Sant Esteve d'en Bas",
          "lat": 42.097,
          "lng": 2.435,
          "type": "waypoint",
          "road": "C-152"
        },
        {
          "name": "Anglès",
          "lat": 41.953,
          "lng": 2.635,
          "type": "waypoint",
          "road": "C-63"
        },
        {
          "name": "Girona",
          "lat": 41.983,
          "lng": 2.824,
          "type": "end",
          "road": "C-63"
        }
      ],
      "waypoints_source": "openai_verified",
      "verification": {
        "gpt_distance_km": 180,
        "gpt_duration_hours": 4.2,
        "distance_diff_pct": 0.03,
        "duration_diff_pct": 0.05,
        "plausible": true,
        "notes": "The route closely follows the specified roads and includes scenic areas in La Garrotxa. The estimated distance and duration are slightly adjusted for accuracy."
      }
    },
    {
      "id": "ruta-042",
      "number": 42,
      "name": "El Triangle Dalinià",
      "slug": "el-triangle-dalinia",
      "category": "pro",
      "difficulty": 3,
      "starting_hub": "Girona / Empordà",
      "starting_point": {
        "name": "Girona",
        "comarca": "Gironès",
        "lat": 41.983,
        "lng": 2.824
      },
      "comarca_principal": "Alt Empordà",
      "summary": "Recorregut pels tres vèrtexs del triangle Dalí: Figueres, Portlligat i Púbol. Un viatge entre art i paisatge que combina les planes de l'Empordà amb els revolts cap a la costa. Les carreteres secundàries entre Peralada i Vilabertran són un plaer per a la moto.",
      "total_distance_km": 195,
      "estimated_duration_hours": 4.5,
      "riding_time_hours": 3.5,
      "elevation_gain_m": 1100,
      "elevation_max_m": 380,
      "roads_main": [
        "C-66",
        "N-II",
        "GI-614",
        "C-31",
        "C-252"
      ],
      "esmorzar": {
        "town": "Figueres",
        "comarca": "Alt Empordà",
        "lat": 42.266,
        "lng": 2.962,
        "specialty": "Esmorzar de forquilla empordanès amb carn a la brasa i escalivada",
        "confidence": "recommended"
      },
      "route_type": "circular",
      "best_season": [
        "primavera",
        "estiu",
        "tardor"
      ],
      "tags": [
        "cultura",
        "empordà",
        "paisatge",
        "pobles"
      ],
      "google_maps_url": "https://www.google.com/maps/dir/41.983,2.824/42.116,2.765/42.199,2.698/42.266,2.962/42.288,3.278/42.261,3.176/42.26,3.075/42.308,3.011/41.983,2.824",
      "waypoints": [
        {
          "name": "Girona",
          "lat": 41.983,
          "lng": 2.824,
          "type": "start",
          "road": "C-66"
        },
        {
          "name": "Banyoles",
          "lat": 42.116,
          "lng": 2.765,
          "type": "waypoint",
          "road": "C-66"
        },
        {
          "name": "Besalú",
          "lat": 42.199,
          "lng": 2.698,
          "type": "waypoint",
          "road": "C-66"
        },
        {
          "name": "Figueres",
          "lat": 42.266,
          "lng": 2.962,
          "type": "esmorzar",
          "road": "N-II"
        },
        {
          "name": "Cadaqués",
          "lat": 42.288,
          "lng": 3.278,
          "type": "waypoint",
          "road": "GI-614"
        },
        {
          "name": "Roses",
          "lat": 42.261,
          "lng": 3.176,
          "type": "waypoint",
          "road": "C-31"
        },
        {
          "name": "Castelló d'Empúries",
          "lat": 42.26,
          "lng": 3.075,
          "type": "waypoint",
          "road": "C-31"
        },
        {
          "name": "Peralada",
          "lat": 42.308,
          "lng": 3.011,
          "type": "waypoint",
          "road": "C-252"
        },
        {
          "name": "Girona",
          "lat": 41.983,
          "lng": 2.824,
          "type": "end",
          "road": "C-66"
        }
      ],
      "waypoints_source": "openai_verified",
      "verification": {
        "gpt_distance_km": 195,
        "gpt_duration_hours": 4.5,
        "distance_diff_pct": 0.0,
        "duration_diff_pct": 0.0,
        "plausible": true,
        "notes": "The route follows the specified roads and includes key towns and points of interest. The estimated distance and duration match the claimed values, making the route plausible. Note that actual travel time may vary based on traffic and road conditions."
      }
    },
    {
      "id": "ruta-043",
      "number": 43,
      "name": "Montseny des del Gironès",
      "slug": "montseny-des-del-girones",
      "category": "pro",
      "difficulty": 4,
      "starting_hub": "Girona / Empordà",
      "starting_point": {
        "name": "Girona",
        "comarca": "Gironès",
        "lat": 41.983,
        "lng": 2.824
      },
      "comarca_principal": "La Selva",
      "summary": "Ascensió al massís del Montseny des del vessant oriental, menys transitat però igualment espectacular. La GI-543 puja entre alzinars i castanyers amb revolts tancs i desnivells exigents. Un repte tècnic amb recompensa paisatgística des dels cims del Turó de l'Home.",
      "total_distance_km": 200,
      "estimated_duration_hours": 4.5,
      "riding_time_hours": 3.5,
      "elevation_gain_m": 2200,
      "elevation_max_m": 1100,
      "roads_main": [
        "C-63",
        "GI-543",
        "BV-5301",
        "C-35"
      ],
      "esmorzar": {
        "town": "Arbúcies",
        "comarca": "La Selva",
        "lat": 41.819,
        "lng": 2.514,
        "specialty": "Esmorzar de pagès amb truita de patates, botifarra i mongetes",
        "confidence": "recommended"
      },
      "route_type": "circular",
      "best_season": [
        "primavera",
        "tardor"
      ],
      "tags": [
        "muntanya",
        "corbes",
        "natura",
        "tècnic"
      ],
      "google_maps_url": "https://www.google.com/maps/dir/41.983,2.824/41.847,2.663/41.819,2.514/41.841,2.395/41.705,2.449/41.686,2.492/41.746,2.635/41.983,2.824",
      "waypoints": [
        {
          "name": "Girona",
          "lat": 41.983,
          "lng": 2.824,
          "type": "start",
          "road": "C-63"
        },
        {
          "name": "Santa Coloma de Farners",
          "lat": 41.847,
          "lng": 2.663,
          "type": "waypoint",
          "road": "C-63"
        },
        {
          "name": "Arbúcies",
          "lat": 41.819,
          "lng": 2.514,
          "type": "esmorzar",
          "road": "GI-543"
        },