{
  "id": "ruta-082",
  "number": 82,
  "name": "Raimat i els Vinyers del Segrià",
  "slug": "raimat-i-els-vinyers-del-segria",
  "category": "aprendiz",
  "difficulty": 1,
  "starting_hub": "Lleida / Segrià",
  "starting_point": {
    "name": "Lleida",
    "comarca": "Segrià",
    "lat": 41.617,
    "lng": 0.62
  },
  "comarca_principal": "Segrià",
  "summary": "Ruta curta i accessible pels voltants de Lleida: Raimat amb el seu castell i vinyes, Alcarràs entre fruiters, i tornada per la ribera del Segre. Ideal per a la primera sortida en moto, amb rectes llargues i alguna corba suau per practicar.",
  "total_distance_km": 55,
  "estimated_duration_hours": 1.5,
  "riding_time_hours": 1.0,
  "elevation_gain_m": 180,
  "elevation_max_m": 310,
  "roads_main": [
    "L-700",
    "L-504"
  ],
  "esmorzar": {
    "town": "Raimat",
    "comarca": "Segrià",
    "lat": 41.658,
    "lng": 0.478,
    "specialty": "Esmorzar entre vinyes amb embotits i vi blanc de Raimat",
    "confidence": "area"
  },
  "route_type": "circular",
  "best_season": [
    "primavera",
    "estiu",
    "tardor"
  ],
  "tags": [
    "vinyes",
    "segrià",
    "suau",
    "gastronomia"
  ],
  "google_maps_url": "https://www.google.com/maps/dir/41.617,0.62/41.635,0.58/41.658,0.478/41.665,0.45/41.691,0.49/41.675,0.53/41.65,0.57/41.617,0.62",
  "waypoints": [
    {
      "name": "Lleida",
      "lat": 41.617,
      "lng": 0.62,
      "type": "start",
      "road": "L-700"
    },
    {
      "name": "Intersection L-700 & L-702",
      "lat": 41.635,
      "lng": 0.58,
      "type": "waypoint",
      "road": "L-700"
    },
    {
      "name": "Raimat",
      "lat": 41.658,
      "lng": 0.478,
      "type": "esmorzar",
      "road": "L-700"
    },
    {
      "name": "Intersection L-700 & L-504",
      "lat": 41.665,
      "lng": 0.45,
      "type": "waypoint",
      "road": "L-504"
    },
    {
      "name": "Vilanova de Segrià",
      "lat": 41.691,
      "lng": 0.49,
      "type": "waypoint",
      "road": "L-504"
    },
    {
      "name": "Intersection L-504 & L-702",
      "lat": 41.675,
      "lng": 0.53,
      "type": "waypoint",
      "road": "L-504"
    },
    {
      "name": "Intersection L-702 & L-700",
      "lat": 41.65,
      "lng": 0.57,
      "type": "waypoint",
      "road": "L-700"
    },
    {
      "name": "Lleida",
      "lat": 41.617,
      "lng": 0.62,
      "type": "end",
      "road": "L-700"
    }
  ],
  "waypoints_source": "openai_verified",
  "verification": {
    "gpt_distance_km": 55,
    "gpt_duration_hours": 1.5,
    "distance_diff_pct": 0.0,
    "duration_diff_pct": 0.0,
    "plausible": true,
    "notes": "The route follows the specified roads and matches the claimed distance and duration."
  },
  "feedback_url": "https://github.com/East27Knight/99rutes-moto-catalunya/issues/new?template=route-feedback.md&title=%5BFeedback%5D%20ruta-082%3A%20Raimat%20i%20els%20Vinyers%20del%20Segri%C3%A0"
}