{
  "id": "ruta-036",
  "number": 36,
  "name": "Sabadell a Montserrat per l'Interior",
  "slug": "sabadell-montserrat-interior",
  "category": "pro",
  "difficulty": 3,
  "starting_hub": "Sabadell / Terrassa",
  "starting_point": {
    "name": "Sabadell",
    "comarca": "Vallès Occidental",
    "lat": 41.543,
    "lng": 2.108
  },
  "comarca_principal": "Bages",
  "summary": "De Sabadell a Montserrat per la ruta interior: Terrassa, Vacarisses i el Bruc fins al monestir, amb tornada per Monistrol i la C-55. Combinació de trams ràpids i revolts de muntanya amb la silueta de Montserrat com a fil conductor. Esmorzar amb vistes a la muntanya sagrada.",
  "total_distance_km": 140,
  "estimated_duration_hours": 3.5,
  "riding_time_hours": 3,
  "elevation_gain_m": 1800,
  "elevation_max_m": 720,
  "roads_main": [
    "C-58",
    "BV-1229",
    "BP-1103",
    "C-55",
    "B-124"
  ],
  "esmorzar": {
    "town": "Monistrol de Montserrat",
    "comarca": "Bages",
    "lat": 41.61,
    "lng": 1.84,
    "specialty": "Esmorzar al restaurant del monestir amb coca de recapte i embotits de la zona",
    "confidence": "recommended"
  },
  "route_type": "circular",
  "best_season": [
    "primavera",
    "tardor",
    "hivern"
  ],
  "tags": [
    "montserrat",
    "monestir",
    "revolts",
    "vistes"
  ],
  "google_maps_url": "https://www.google.com/maps/dir/41.543,2.108/41.563,2.008/41.563,1.957/41.543,1.894/41.61,1.84/41.66,1.872/41.65,1.866/41.543,2.108",
  "waypoints": [
    {
      "name": "Sabadell",
      "lat": 41.543,
      "lng": 2.108,
      "type": "start",
      "road": "C-58"
    },
    {
      "name": "Terrassa",
      "lat": 41.563,
      "lng": 2.008,
      "type": "waypoint",
      "road": "C-58"
    },
    {
      "name": "Viladecavalls",
      "lat": 41.563,
      "lng": 1.957,
      "type": "waypoint",
      "road": "BV-1229"
    },
    {
      "name": "Olesa de Montserrat",
      "lat": 41.543,
      "lng": 1.894,
      "type": "waypoint",
      "road": "BP-1103"
    },
    {
      "name": "Monistrol de Montserrat",
      "lat": 41.61,
      "lng": 1.84,
      "type": "esmorzar",
      "road": "C-55"
    },
    {
      "name": "Sant Vicenç de Castellet",
      "lat": 41.66,
      "lng": 1.872,
      "type": "waypoint",
      "road": "C-55"
    },
    {
      "name": "Castellbell i el Vilar",
      "lat": 41.65,
      "lng": 1.866,
      "type": "waypoint",
      "road": "B-124"
    },
    {
      "name": "Sabadell",
      "lat": 41.543,
      "lng": 2.108,
      "type": "end",
      "road": "B-124"
    }
  ],
  "waypoints_source": "openai_verified",
  "verification": {
    "gpt_distance_km": 150,
    "gpt_duration_hours": 3.5,
    "distance_diff_pct": 0.07,
    "duration_diff_pct": 0.0,
    "plausible": true,
    "notes": "The route follows scenic secondary roads and avoids highways. The estimated distance and duration are slightly adjusted for realistic travel times on these roads."
  }
}