{
  "id": "ruta-062",
  "number": 62,
  "name": "Pantà de Sau Exprés",
  "slug": "panta-de-sau-expres",
  "category": "aprendiz",
  "difficulty": 2,
  "starting_hub": "Vic / Osona",
  "starting_point": {
    "name": "Vic",
    "comarca": "Osona",
    "lat": 41.886,
    "lng": 2.254
  },
  "comarca_principal": "Osona",
  "summary": "Versió curta de la ruta al pantà de Sau, adaptada per a principiants. Baixada suau per la C-153 fins a Vilanova de Sau amb vistes al pantà i al mític campanar submergit. Les corbes són obertes i previsibles, ideals per practicar la tècnica de les revoltes.",
  "total_distance_km": 70,
  "estimated_duration_hours": 2,
  "riding_time_hours": 1.5,
  "elevation_gain_m": 450,
  "elevation_max_m": 600,
  "roads_main": [
    "C-153",
    "BV-5213",
    "C-17"
  ],
  "esmorzar": {
    "town": "Vilanova de Sau",
    "comarca": "Osona",
    "lat": 41.93,
    "lng": 2.385,
    "specialty": "Entrepà de botifarra amb mongetes i un cafè amb vistes al pantà",
    "confidence": "recommended"
  },
  "route_type": "circular",
  "best_season": [
    "primavera",
    "estiu",
    "tardor"
  ],
  "tags": [
    "embassament",
    "principiant",
    "vistes",
    "tranquil"
  ],
  "google_maps_url": "https://www.google.com/maps/dir/41.886,2.254/41.93,2.261/41.933,2.321/41.93,2.385/41.953,2.393/41.905,2.333/41.85,2.223/41.886,2.254",
  "waypoints": [
    {
      "name": "Vic",
      "lat": 41.886,
      "lng": 2.254,
      "type": "start",
      "road": "C-153"
    },
    {
      "name": "Gurb",
      "lat": 41.93,
      "lng": 2.261,
      "type": "waypoint",
      "road": "C-153"
    },
    {
      "name": "Tavèrnoles",
      "lat": 41.933,
      "lng": 2.321,
      "type": "waypoint",
      "road": "BV-5213"
    },
    {
      "name": "Vilanova de Sau",
      "lat": 41.93,
      "lng": 2.385,
      "type": "esmorzar",
      "road": "BV-5213"
    },
    {
      "name": "Pantà de Sau",
      "lat": 41.953,
      "lng": 2.393,
      "type": "viewpoint",
      "road": "BV-5213"
    },
    {
      "name": "Sant Julià de Vilatorta",
      "lat": 41.905,
      "lng": 2.333,
      "type": "waypoint",
      "road": "C-153"
    },
    {
      "name": "Tona",
      "lat": 41.85,
      "lng": 2.223,
      "type": "waypoint",
      "road": "C-17"
    },
    {
      "name": "Vic",
      "lat": 41.886,
      "lng": 2.254,
      "type": "end",
      "road": "C-17"
    }
  ],
  "waypoints_source": "openai_verified",
  "verification": {
    "gpt_distance_km": 72,
    "gpt_duration_hours": 2,
    "distance_diff_pct": 0.03,
    "duration_diff_pct": 0.0,
    "plausible": true,
    "notes": "The route closely follows the specified roads and matches the claimed distance and duration. The path includes scenic views near Pantà de Sau."
  }
}