{
  "id": "ruta-025",
  "number": 25,
  "name": "La Volta al Tibidabo",
  "slug": "volta-tibidabo",
  "category": "pro",
  "difficulty": 2,
  "starting_hub": "Barcelona / Vallès",
  "starting_point": {
    "name": "Barcelona",
    "comarca": "Barcelonès",
    "lat": 41.389,
    "lng": 2.159
  },
  "comarca_principal": "Barcelonès",
  "summary": "Pujada al Tibidabo per la carretera de Vallvidrera, travessia de Collserola fins a la Floresta, baixada cap a Molins de Rei i remuntada per Sant Feliu i la Ronda de Dalt. Combinació urbana i forestal amb vistes panoràmiques de tota la ciutat i el mar al fons. Ruta ràpida i efectiva.",
  "total_distance_km": 125,
  "estimated_duration_hours": 3,
  "riding_time_hours": 2.5,
  "elevation_gain_m": 1300,
  "elevation_max_m": 512,
  "roads_main": [
    "BV-1468",
    "BP-1417",
    "B-23",
    "B-20",
    "C-16"
  ],
  "esmorzar": {
    "town": "Vallvidrera",
    "comarca": "Barcelonès",
    "lat": 41.417,
    "lng": 2.107,
    "specialty": "Entrepà de pernil ibèric amb tomàquet en un bar de Vallvidrera",
    "confidence": "recommended"
  },
  "route_type": "circular",
  "best_season": [
    "primavera",
    "tardor",
    "hivern"
  ],
  "tags": [
    "urbà",
    "vistes",
    "collserola",
    "accessible"
  ],
  "google_maps_url": "https://www.google.com/maps/dir/41.389,2.159/41.417,2.107/41.421,2.097/41.472,2.086/41.416,2.019/41.375,2.088/41.493,2.189/41.389,2.159",
  "waypoints": [
    {
      "name": "Barcelona",
      "lat": 41.389,
      "lng": 2.159,
      "type": "start",
      "road": "BV-1468"
    },
    {
      "name": "Vallvidrera",
      "lat": 41.417,
      "lng": 2.107,
      "type": "esmorzar",
      "road": "BV-1468"
    },
    {
      "name": "Collserola Park Entrance",
      "lat": 41.421,
      "lng": 2.097,
      "type": "waypoint",
      "road": "BP-1417"
    },
    {
      "name": "Sant Cugat del Vallès",
      "lat": 41.472,
      "lng": 2.086,
      "type": "waypoint",
      "road": "BP-1417"
    },
    {
      "name": "Molins de Rei",
      "lat": 41.416,
      "lng": 2.019,
      "type": "waypoint",
      "road": "B-23"
    },
    {
      "name": "Esplugues de Llobregat",
      "lat": 41.375,
      "lng": 2.088,
      "type": "waypoint",
      "road": "B-20"
    },
    {
      "name": "Montcada i Reixac",
      "lat": 41.493,
      "lng": 2.189,
      "type": "waypoint",
      "road": "C-16"
    },
    {
      "name": "Barcelona",
      "lat": 41.389,
      "lng": 2.159,
      "type": "end",
      "road": "C-16"
    }
  ],
  "waypoints_source": "openai_verified",
  "verification": {
    "gpt_distance_km": 80,
    "gpt_duration_hours": 2,
    "distance_diff_pct": 0.36,
    "duration_diff_pct": 0.33,
    "plausible": false,
    "notes": "The claimed distance and duration seem exaggerated for the roads specified. The real route is shorter and quicker."
  },
  "feedback_url": "https://github.com/East27Knight/99rutes-moto-catalunya/issues/new?template=route-feedback.md&title=%5BFeedback%5D%20ruta-025%3A%20La%20Volta%20al%20Tibidabo"
}