{
  "id": "ruta-094",
  "number": 94,
  "name": "Delta de l'Ebre Gran Volta",
  "slug": "delta-de-lebre-gran-volta",
  "category": "pro",
  "difficulty": 2,
  "starting_hub": "Tortosa / Terres de l'Ebre",
  "starting_point": {
    "name": "Tortosa",
    "comarca": "Baix Ebre",
    "lat": 40.812,
    "lng": 0.521
  },
  "comarca_principal": "Montsià",
  "summary": "Circuit únic pel Delta de l'Ebre: arrossars infinits, flamencs rosats, llacunes i la línia de l'horitzó on el cel es fon amb l'aigua. Una ruta plana però hipnòtica que recorre els dos hemideltes, amb parades als miradors d'aus i les salines de la Trinitat.",
  "total_distance_km": 130,
  "estimated_duration_hours": 3.5,
  "riding_time_hours": 2.5,
  "elevation_gain_m": 200,
  "elevation_max_m": 25,
  "roads_main": [
    "TV-3405",
    "TV-3406",
    "C-12",
    "TV-3401"
  ],
  "esmorzar": {
    "town": "Deltebre",
    "comarca": "Baix Ebre",
    "lat": 40.721,
    "lng": 0.726,
    "specialty": "Arròs a banda del Delta i anguiles amb all i julivert",
    "confidence": "recommended"
  },
  "route_type": "circular",
  "best_season": [
    "primavera",
    "tardor",
    "hivern"
  ],
  "tags": [
    "delta",
    "natura",
    "aus",
    "arrossars"
  ],
  "google_maps_url": "https://www.google.com/maps/dir/40.812,0.521/40.713,0.581/40.721,0.726/40.72,0.746/40.619,0.604/40.621,0.59/40.713,0.581/40.812,0.521",
  "waypoints": [
    {
      "name": "Tortosa",
      "lat": 40.812,
      "lng": 0.521,
      "type": "start",
      "road": "C-12"
    },
    {
      "name": "Amposta",
      "lat": 40.713,
      "lng": 0.581,
      "type": "waypoint",
      "road": "C-12"
    },
    {
      "name": "Deltebre",
      "lat": 40.721,
      "lng": 0.726,
      "type": "esmorzar",
      "road": "TV-3401"
    },
    {
      "name": "Sant Jaume d'Enveja",
      "lat": 40.72,
      "lng": 0.746,
      "type": "waypoint",
      "road": "TV-3405"
    },
    {
      "name": "Sant Carles de la Ràpita",
      "lat": 40.619,
      "lng": 0.604,
      "type": "waypoint",
      "road": "TV-3406"
    },
    {
      "name": "La Ràpita",
      "lat": 40.621,
      "lng": 0.59,
      "type": "waypoint",
      "road": "TV-3406"
    },
    {
      "name": "Amposta",
      "lat": 40.713,
      "lng": 0.581,
      "type": "waypoint",
      "road": "C-12"
    },
    {
      "name": "Tortosa",
      "lat": 40.812,
      "lng": 0.521,
      "type": "end",
      "road": "C-12"
    }
  ],
  "waypoints_source": "openai_verified",
  "verification": {
    "gpt_distance_km": 135,
    "gpt_duration_hours": 3.5,
    "distance_diff_pct": 0.04,
    "duration_diff_pct": 0.0,
    "plausible": true,
    "notes": "The route follows the specified roads closely and the estimated distance and duration are consistent with the claimed values."
  }
}