{
  "id": "ruta-050",
  "number": 50,
  "name": "L'Estany de Banyoles i Porqueres",
  "slug": "lestany-de-banyoles-i-porqueres",
  "category": "aprendiz",
  "difficulty": 1,
  "starting_hub": "Girona / Empordà",
  "starting_point": {
    "name": "Girona",
    "comarca": "Gironès",
    "lat": 41.983,
    "lng": 2.824
  },
  "comarca_principal": "Pla de l'Estany",
  "summary": "Ruta curta i planera fins a l'estany de Banyoles, el llac més gran de Catalunya. Volta tranquil·la per Porqueres i els voltants del llac amb carreteres amples i ben asfaltades. Perfecta per a un matí relaxat amb esmorzar a la vora de l'aigua.",
  "total_distance_km": 65,
  "estimated_duration_hours": 2,
  "riding_time_hours": 1.5,
  "elevation_gain_m": 180,
  "elevation_max_m": 175,
  "roads_main": [
    "C-66",
    "GI-524",
    "GI-554"
  ],
  "esmorzar": {
    "town": "Banyoles",
    "comarca": "Pla de l'Estany",
    "lat": 42.119,
    "lng": 2.764,
    "specialty": "Entrepà de llonganissa amb un tallat a la plaça Major",
    "confidence": "recommended"
  },
  "route_type": "circular",
  "best_season": [
    "primavera",
    "estiu",
    "tardor"
  ],
  "tags": [
    "llac",
    "tranquil",
    "principiant",
    "paisatge"
  ],
  "google_maps_url": "https://www.google.com/maps/dir/41.983,2.824/41.981,2.734/41.999,2.739/42.119,2.764/42.116,2.756/42.136,2.609/42.148,2.572/42.051,2.74/41.983,2.824",
  "waypoints": [
    {
      "name": "Girona",
      "lat": 41.983,
      "lng": 2.824,
      "type": "start",
      "road": "C-66"
    },
    {
      "name": "Bescanó",
      "lat": 41.981,
      "lng": 2.734,
      "type": "waypoint",
      "road": "C-66"
    },
    {
      "name": "Sant Gregori",
      "lat": 41.999,
      "lng": 2.739,
      "type": "waypoint",
      "road": "C-66"
    },
    {
      "name": "Banyoles",
      "lat": 42.119,
      "lng": 2.764,
      "type": "esmorzar",
      "road": "GI-524"
    },
    {
      "name": "Porqueres",
      "lat": 42.116,
      "lng": 2.756,
      "type": "waypoint",
      "road": "GI-524"
    },
    {
      "name": "Mieres",
      "lat": 42.136,
      "lng": 2.609,
      "type": "waypoint",
      "road": "GI-524"
    },
    {
      "name": "Santa Pau",
      "lat": 42.148,
      "lng": 2.572,
      "type": "waypoint",
      "road": "GI-524"
    },
    {
      "name": "Canet d'Adri",
      "lat": 42.051,
      "lng": 2.74,
      "type": "waypoint",
      "road": "GI-554"
    },
    {
      "name": "Girona",
      "lat": 41.983,
      "lng": 2.824,
      "type": "end",
      "road": "GI-554"
    }
  ],
  "waypoints_source": "openai_verified",
  "verification": {
    "gpt_distance_km": 70,
    "gpt_duration_hours": 2.2,
    "distance_diff_pct": 0.08,
    "duration_diff_pct": 0.1,
    "plausible": true,
    "notes": "The route is slightly longer than claimed, likely due to additional curves and elevation changes. The estimated duration accounts for typical traffic and road conditions."
  }
}